{
"type": "FeatureCollection",
"features": [
{ "type": "Feature", "properties": { "Book_ID": 9918748890101480, "Title": "Onze lieve vrouw van Kortenbos.", "Extended Title ": null, "Place of Publication": "Sint-Truiden", "Name of Publisher": "Onze lieve vrouw van Kortenbos", "Publication Frequency": "Other", "Coordinates": "Sint-Truiden, Hasselt, Limburg, Vlaanderen, België / Belgique / Belgien", "Latitude": 50.8152784, "Longitude": 5.1858896 }, "geometry": { "type": "Point", "coordinates": [ 5.1858896, 50.8152784 ] } },
{ "type": "Feature", "properties": { "Book_ID": 9918753570101480, "Title": "Nieuws stichting Chili.", "Extended Title ": null, "Place of Publication": "Tongerlo", "Name of Publisher": "Norbertijnen Tongerlo", "Publication Frequency": "Unknown", "Coordinates": "Tongerlo, Westerlo, Turnhout, Antwerpen, Vlaanderen, 2260, België / Belgique / Belgien", "Latitude": 51.1130594, "Longitude": 4.915524 }, "geometry": { "type": "Point", "coordinates": [ 4.915524, 51.1130594 ] } },
{ "type": "Feature", "properties": { "Book_ID": 9918754260101480, "Title": "Toets", "Extended Title ": "informatieblad van de syndicale werking LBC-NVK, ATP-KULeuven.", "Place of Publication": "Leuven", "Name of Publisher": "Unknown", "Publication Frequency": "Unknown", "Coordinates": "Leuven, Vlaams-Brabant, Vlaanderen, België / Belgique / Belgien", "Latitude": 50.879202, "Longitude": 4.7011675 }, "geometry": { "type": "Point", "coordinates": [ 4.7011675, 50.879202 ] } },
{ "type": "Feature", "properties": { "Book_ID": 9918761110101480, "Title": "Pausbezoek.", "Extended Title ": null, "Place of Publication": "Unknown", "Name of Publisher": "Unknown", "Publication Frequency": "Monthly", "Coordinates": "Unknown, New Providence, The Bahamas", "Latitude": 25.029422, "Longitude": -77.361955984966812 }, "geometry": { "type": "Point", "coordinates": [ -77.361955984966812, 25.029422 ] } },
{ "type": "Feature", "properties": { "Book_ID": 9918775740101480, "Title": "Parels", "Extended Title ": "parels van Rooms katholieke journalistiek uit heden en verleden.", "Place of Publication": "Amsterdam", "Name of Publisher": "R.K. initiatief comité", "Publication Frequency": "Unknown", "Coordinates": "Amsterdam, Noord-Holland, Nederland", "Latitude": 52.3730796, "Longitude": 4.8924534 }, "geometry": { "type": "Point", "coordinates": [ 4.8924534, 52.3730796 ] } },
{ "type": "Feature", "properties": { "Book_ID": 9918779680101480, "Title": "Sintal nieuws.", "Extended Title ": null, "Place of Publication": "Leuven", "Name of Publisher": "Sintal", "Publication Frequency": "Quarterly", "Coordinates": "Leuven, Vlaams-Brabant, Vlaanderen, België / Belgique / Belgien", "Latitude": 50.879202, "Longitude": 4.7011675 }, "geometry": { "type": "Point", "coordinates": [ 4.7011675, 50.879202 ] } },
{ "type": "Feature", "properties": { "Book_ID": 9918803310101480, "Title": "Sprankel", "Extended Title ": ":berichtenblad van Hoogveld.", "Place of Publication": "Veldegem", "Name of Publisher": "Sprankel", "Publication Frequency": "Quarterly", "Coordinates": "Veldegem, Zedelgem, Brugge, West-Vlaanderen, België / Belgique / Belgien", "Latitude": 51.1048944, "Longitude": 3.1606518 }, "geometry": { "type": "Point", "coordinates": [ 3.1606518, 51.1048944 ] } },
{ "type": "Feature", "properties": { "Book_ID": 9918806510101480, "Title": "Spoed-info", "Extended Title ": "federatie besturen.", "Place of Publication": "Bruxelles", "Name of Publisher": "NCOV", "Publication Frequency": "Unknown", "Coordinates": "Bruxelles - Brussel, Ville de Bruxelles - Stad Brussel, Brussel-Hoofdstad - Bruxelles-Capitale, Région de Bruxelles-Capitale - Brussels Hoofdstedelijk Gewest, België / Belgique / Belgien", "Latitude": 50.8465573, "Longitude": 4.351697 }, "geometry": { "type": "Point", "coordinates": [ 4.351697, 50.8465573 ] } },
{ "type": "Feature", "properties": { "Book_ID": 9918826960101480, "Title": "Salesiaans missienieuws.", "Extended Title ": null, "Place of Publication": "Bruxelles", "Name of Publisher": "DMOS", "Publication Frequency": "Quarterly", "Coordinates": "Bruxelles - Brussel, Ville de Bruxelles - Stad Brussel, Brussel-Hoofdstad - Bruxelles-Capitale, Région de Bruxelles-Capitale - Brussels Hoofdstedelijk Gewest, België / Belgique / Belgien", "Latitude": 50.8465573, "Longitude": 4.351697 }, "geometry": { "type": "Point", "coordinates": [ 4.351697, 50.8465573 ] } },
{ "type": "Feature", "properties": { "Book_ID": 9918835320101480, "Title": "Ter Munk.", "Extended Title ": null, "Place of Publication": "Bruxelles", "Name of Publisher": "Vormingscentrum Ter Munk", "Publication Frequency": "Quarterly", "Coordinates": "Bruxelles - Brussel, Ville de Bruxelles - Stad Brussel, Brussel-Hoofdstad - Bruxelles-Capitale, Région de Bruxelles-Capitale - Brussels Hoofdstedelijk Gewest, België / Belgique / Belgien", "Latitude": 50.8465573, "Longitude": 4.351697 }, "geometry": { "type": "Point", "coordinates": [ 4.351697, 50.8465573 ] } },
{ "type": "Feature", "properties": { "Book_ID": 9918842830101480, "Title": "Tip", "Extended Title ": ": tweemaandelijkse periodiek van St.-Paulusjeugdkampen.", "Place of Publication": "Bruxelles", "Name of Publisher": "St.-Paulusjeugdkampen", "Publication Frequency": "Bimonthly", "Coordinates": "Bruxelles - Brussel, Ville de Bruxelles - Stad Brussel, Brussel-Hoofdstad - Bruxelles-Capitale, Région de Bruxelles-Capitale - Brussels Hoofdstedelijk Gewest, België / Belgique / Belgien", "Latitude": 50.8465573, "Longitude": 4.351697 }, "geometry": { "type": "Point", "coordinates": [ 4.351697, 50.8465573 ] } },
{ "type": "Feature", "properties": { "Book_ID": 9918843440101480, "Title": "Telex.", "Extended Title ": null, "Place of Publication": "Hasselt", "Name of Publisher": "Sociaal en fiscaal middenstandssecretariaat", "Publication Frequency": "Quarterly", "Coordinates": "Hasselt, Limburg, België / Belgique / Belgien", "Latitude": 50.9303735, "Longitude": 5.3378043 }, "geometry": { "type": "Point", "coordinates": [ 5.3378043, 50.9303735 ] } },
{ "type": "Feature", "properties": { "Book_ID": 9918849600101480, "Title": "Telex ouders voor PPT.", "Extended Title ": null, "Place of Publication": "Bruxelles", "Name of Publisher": "COB-VLO", "Publication Frequency": "Unknown", "Coordinates": "Bruxelles - Brussel, Ville de Bruxelles - Stad Brussel, Brussel-Hoofdstad - Bruxelles-Capitale, Région de Bruxelles-Capitale - Brussels Hoofdstedelijk Gewest, België / Belgique / Belgien", "Latitude": 50.8465573, "Longitude": 4.351697 }, "geometry": { "type": "Point", "coordinates": [ 4.351697, 50.8465573 ] } },
{ "type": "Feature", "properties": { "Book_ID": 9918851490101480, "Title": "UNDA News", "Extended Title ": "Bimonthly newsletter", "Place of Publication": "Bruxelles", "Name of Publisher": "UNDA", "Publication Frequency": "Bimonthly", "Coordinates": "Bruxelles - Brussel, Ville de Bruxelles - Stad Brussel, Brussel-Hoofdstad - Bruxelles-Capitale, Région de Bruxelles-Capitale - Brussels Hoofdstedelijk Gewest, België / Belgique / Belgien", "Latitude": 50.8465573, "Longitude": 4.351697 }, "geometry": { "type": "Point", "coordinates": [ 4.351697, 50.8465573 ] } },
{ "type": "Feature", "properties": { "Book_ID": 9918854650101480, "Title": "Variant.", "Extended Title ": null, "Place of Publication": "Hasselt", "Name of Publisher": "Licht en liefde", "Publication Frequency": "Quarterly", "Coordinates": "Hasselt, Limburg, België / Belgique / Belgien", "Latitude": 50.9303735, "Longitude": 5.3378043 }, "geometry": { "type": "Point", "coordinates": [ 5.3378043, 50.9303735 ] } },
{ "type": "Feature", "properties": { "Book_ID": 9918878990101480, "Title": "Zorgend leven bij onze bejaarden", "Extended Title ": "Contact met het personeel van de bejaardentehuizen.", "Place of Publication": "Hasselt", "Name of Publisher": "Bisdom Hasselt. Secretariaat bejaardenpastoraal", "Publication Frequency": "Monthly", "Coordinates": "Hasselt, Limburg, België / Belgique / Belgien", "Latitude": 50.9303735, "Longitude": 5.3378043 }, "geometry": { "type": "Point", "coordinates": [ 5.3378043, 50.9303735 ] } },
{ "type": "Feature", "properties": { "Book_ID": 9918904850101480, "Title": "Tongeren ziekenzorg.", "Extended Title ": null, "Place of Publication": "Tongeren", "Name of Publisher": "Verbond van kristelijke mutualiteiten van Limburg. Afdeling Tongeren", "Publication Frequency": "Semiannual", "Coordinates": "Tongeren, Limburg, Vlaanderen, 3700, België / Belgique / Belgien", "Latitude": 50.7806267, "Longitude": 5.4639172 }, "geometry": { "type": "Point", "coordinates": [ 5.4639172, 50.7806267 ] } },
{ "type": "Feature", "properties": { "Book_ID": 9918909420101480, "Title": "Zomaar.", "Extended Title ": null, "Place of Publication": "Roeselare", "Name of Publisher": "Jeugd en gezondheid CM. Verbond Roeselare", "Publication Frequency": "Quarterly", "Coordinates": "Roeselare, West-Vlaanderen, 8800, België / Belgique / Belgien", "Latitude": 50.9444948, "Longitude": 3.124765 }, "geometry": { "type": "Point", "coordinates": [ 3.124765, 50.9444948 ] } },
{ "type": "Feature", "properties": { "Book_ID": 9918926110101480, "Title": "SMB info.", "Extended Title ": null, "Place of Publication": "Bruxelles", "Name of Publisher": "Sint-Michielsbond", "Publication Frequency": "Quarterly", "Coordinates": "Bruxelles - Brussel, Ville de Bruxelles - Stad Brussel, Brussel-Hoofdstad - Bruxelles-Capitale, Région de Bruxelles-Capitale - Brussels Hoofdstedelijk Gewest, België / Belgique / Belgien", "Latitude": 50.8465573, "Longitude": 4.351697 }, "geometry": { "type": "Point", "coordinates": [ 4.351697, 50.8465573 ] } },
{ "type": "Feature", "properties": { "Book_ID": 9918926700101480, "Title": "De kleine zeg", "Extended Title ": ":informatieblad voor de CVP-leden van het arr. Ieper.", "Place of Publication": "Ieper", "Name of Publisher": "CVP", "Publication Frequency": "Quarterly", "Coordinates": "Ieper, West-Vlaanderen, 8900, België / Belgique / Belgien", "Latitude": 50.85169675, "Longitude": 2.8914736832758958 }, "geometry": { "type": "Point", "coordinates": [ 2.891473683275896, 50.85169675 ] } },
{ "type": "Feature", "properties": { "Book_ID": 9918926940101480, "Title": "Service", "Extended Title ": ":maandelijks tijdschrift van de Christen democratische omroep.", "Place of Publication": "Bruxelles", "Name of Publisher": "Christen democratische omroep", "Publication Frequency": "Monthly", "Coordinates": "Bruxelles - Brussel, Ville de Bruxelles - Stad Brussel, Brussel-Hoofdstad - Bruxelles-Capitale, Région de Bruxelles-Capitale - Brussels Hoofdstedelijk Gewest, België / Belgique / Belgien", "Latitude": 50.8465573, "Longitude": 4.351697 }, "geometry": { "type": "Point", "coordinates": [ 4.351697, 50.8465573 ] } },
{ "type": "Feature", "properties": { "Book_ID": 9918941740101480, "Title": "CVP overzee.", "Extended Title ": "Informatieblad.", "Place of Publication": "Kinshasa", "Name of Publisher": "CVP", "Publication Frequency": "Unknown", "Coordinates": "Kinshasa, Aketi, Kinshasa, République démocratique du Congo", "Latitude": -4.3217055, "Longitude": 15.3125974 }, "geometry": { "type": "Point", "coordinates": [ 15.3125974, -4.3217055 ] } },
{ "type": "Feature", "properties": { "Book_ID": 9918959900101480, "Title": "CVP persbrief.", "Extended Title ": null, "Place of Publication": "Bruxelles", "Name of Publisher": "CVP", "Publication Frequency": "Monthly", "Coordinates": "Bruxelles - Brussel, Ville de Bruxelles - Stad Brussel, Brussel-Hoofdstad - Bruxelles-Capitale, Région de Bruxelles-Capitale - Brussels Hoofdstedelijk Gewest, België / Belgique / Belgien", "Latitude": 50.8465573, "Longitude": 4.351697 }, "geometry": { "type": "Point", "coordinates": [ 4.351697, 50.8465573 ] } },
{ "type": "Feature", "properties": { "Book_ID": 9918959920101480, "Title": "Onder ons gezegd.", "Extended Title ": null, "Place of Publication": "Bruxelles", "Name of Publisher": "CVP", "Publication Frequency": "Unknown", "Coordinates": "Bruxelles - Brussel, Ville de Bruxelles - Stad Brussel, Brussel-Hoofdstad - Bruxelles-Capitale, Région de Bruxelles-Capitale - Brussels Hoofdstedelijk Gewest, België / Belgique / Belgien", "Latitude": 50.8465573, "Longitude": 4.351697 }, "geometry": { "type": "Point", "coordinates": [ 4.351697, 50.8465573 ] } },
{ "type": "Feature", "properties": { "Book_ID": 9918992450101480, "Title": "CVP-jongeren. Info.", "Extended Title ": null, "Place of Publication": "Bruxelles", "Name of Publisher": "CVP-jongeren", "Publication Frequency": "Unknown", "Coordinates": "Bruxelles - Brussel, Ville de Bruxelles - Stad Brussel, Brussel-Hoofdstad - Bruxelles-Capitale, Région de Bruxelles-Capitale - Brussels Hoofdstedelijk Gewest, België / Belgique / Belgien", "Latitude": 50.8465573, "Longitude": 4.351697 }, "geometry": { "type": "Point", "coordinates": [ 4.351697, 50.8465573 ] } },
{ "type": "Feature", "properties": { "Book_ID": 9918992670101480, "Title": "Informatiekrant.", "Extended Title ": null, "Place of Publication": "Mechelen", "Name of Publisher": "CVP", "Publication Frequency": "Unknown", "Coordinates": "Mechelen, Antwerpen, Vlaanderen, België / Belgique / Belgien", "Latitude": 51.0281381, "Longitude": 4.4803453 }, "geometry": { "type": "Point", "coordinates": [ 4.4803453, 51.0281381 ] } },
{ "type": "Feature", "properties": { "Book_ID": 9918993180101480, "Title": "De jonge werkers.", "Extended Title ": null, "Place of Publication": "Antwerpen", "Name of Publisher": "KAJ", "Publication Frequency": "Monthly", "Coordinates": "Antwerpen, Vlaanderen, België / Belgique / Belgien", "Latitude": 51.2211097, "Longitude": 4.3997081 }, "geometry": { "type": "Point", "coordinates": [ 4.3997081, 51.2211097 ] } },
{ "type": "Feature", "properties": { "Book_ID": 9918993460101480, "Title": "KAJEE.", "Extended Title ": null, "Place of Publication": "Turnhout", "Name of Publisher": "KAJ", "Publication Frequency": "Monthly", "Coordinates": "Turnhout, Antwerpen, Vlaanderen, 2300, België / Belgique / Belgien", "Latitude": 51.3286495, "Longitude": 4.9295943256760779 }, "geometry": { "type": "Point", "coordinates": [ 4.929594325676078, 51.3286495 ] } },
{ "type": "Feature", "properties": { "Book_ID": 9918994110101480, "Title": "Militantenblad.", "Extended Title ": null, "Place of Publication": "Leuven", "Name of Publisher": "KAJ", "Publication Frequency": "Unknown", "Coordinates": "Leuven, Vlaams-Brabant, Vlaanderen, België / Belgique / Belgien", "Latitude": 50.879202, "Longitude": 4.7011675 }, "geometry": { "type": "Point", "coordinates": [ 4.7011675, 50.879202 ] } },
{ "type": "Feature", "properties": { "Book_ID": 9918994330101480, "Title": "'t ACV-tje.", "Extended Title ": null, "Place of Publication": "Roeselare", "Name of Publisher": "ACV", "Publication Frequency": "Bimonthly", "Coordinates": "Roeselare, West-Vlaanderen, 8800, België / Belgique / Belgien", "Latitude": 50.9444948, "Longitude": 3.124765 }, "geometry": { "type": "Point", "coordinates": [ 3.124765, 50.9444948 ] } },
{ "type": "Feature", "properties": { "Book_ID": 9918995440101480, "Title": "Komaan, blijf niet staan! Pak de toekomst aan...", "Extended Title ": null, "Place of Publication": "Ieper", "Name of Publisher": "VKAJ", "Publication Frequency": "Monthly", "Coordinates": "Ieper, West-Vlaanderen, 8900, België / Belgique / Belgien", "Latitude": 50.85169675, "Longitude": 2.8914736832758958 }, "geometry": { "type": "Point", "coordinates": [ 2.891473683275896, 50.85169675 ] } },
{ "type": "Feature", "properties": { "Book_ID": 9918995470101480, "Title": "(Unlisted)", "Extended Title ": "Een regenboog van solidariteit.", "Place of Publication": "Ieper", "Name of Publisher": "VKAJ", "Publication Frequency": "Bimonthly", "Coordinates": "Ieper, West-Vlaanderen, 8900, België / Belgique / Belgien", "Latitude": 50.85169675, "Longitude": 2.8914736832758958 }, "geometry": { "type": "Point", "coordinates": [ 2.891473683275896, 50.85169675 ] } },
{ "type": "Feature", "properties": { "Book_ID": 9919065300101480, "Title": "Ortekje.", "Extended Title ": null, "Place of Publication": "Kortrijk", "Name of Publisher": "VKAJ", "Publication Frequency": "Bimonthly", "Coordinates": "Kortrijk, West-Vlaanderen, België / Belgique / Belgien", "Latitude": 50.8276429, "Longitude": 3.2659884 }, "geometry": { "type": "Point", "coordinates": [ 3.2659884, 50.8276429 ] } },
{ "type": "Feature", "properties": { "Book_ID": 9919077880101480, "Title": "Echos du tiers-monde.", "Extended Title ": null, "Place of Publication": "Remouchamps", "Name of Publisher": "Groupe tiers-monde", "Publication Frequency": "Quarterly", "Coordinates": "Remouchamps, Aywaille, Liège, Wallonie, 4920, België / Belgique / Belgien", "Latitude": 50.4794772, "Longitude": 5.7126031 }, "geometry": { "type": "Point", "coordinates": [ 5.7126031, 50.4794772 ] } },
{ "type": "Feature", "properties": { "Book_ID": 9919100360101480, "Title": "Enfants de partout.", "Extended Title ": null, "Place of Publication": "Paris", "Name of Publisher": "Bureau international catholique de l'enfance", "Publication Frequency": "Unknown", "Coordinates": "Paris, Île-de-France, France métropolitaine, France", "Latitude": 48.8588897, "Longitude": 2.3200410217200766 }, "geometry": { "type": "Point", "coordinates": [ 2.320041021720077, 48.8588897 ] } },
{ "type": "Feature", "properties": { "Book_ID": 9919195860101480, "Title": "Solidarité Guatémala", "Extended Title ": ":bulletin d'information des Comités de solidarité pour le Guatémala.", "Place of Publication": "Lesve", "Name of Publisher": "Comités de solidarité pour le Guatémala", "Publication Frequency": "Monthly", "Coordinates": "Lesve, Profondeville, Namur, Wallonie, België / Belgique / Belgien", "Latitude": 50.3739895, "Longitude": 4.7747618790898105 }, "geometry": { "type": "Point", "coordinates": [ 4.774761879089811, 50.3739895 ] } },
{ "type": "Feature", "properties": { "Book_ID": 9919245060101480, "Title": "Bulletin de solidarité Guatémala.", "Extended Title ": null, "Place of Publication": "Liège", "Name of Publisher": "Coordination des comités Guatémala", "Publication Frequency": "Bimonthly", "Coordinates": "Liège, Wallonie, 4000, België / Belgique / Belgien", "Latitude": 50.6450944, "Longitude": 5.5736112 }, "geometry": { "type": "Point", "coordinates": [ 5.5736112, 50.6450944 ] } },
{ "type": "Feature", "properties": { "Book_ID": 9919247090101480, "Title": "'t Sociaal aktiefje", "Extended Title ": "studentenblad Sociale hogeschool Heverlee.", "Place of Publication": "Heverlee", "Name of Publisher": "Sociale Hogeschool", "Publication Frequency": "Unknown", "Coordinates": "Heverlee, Leuven, Vlaams-Brabant, Vlaanderen, 3001, België / Belgique / Belgien", "Latitude": 50.8645908, "Longitude": 4.6937736 }, "geometry": { "type": "Point", "coordinates": [ 4.6937736, 50.8645908 ] } },
{ "type": "Feature", "properties": { "Book_ID": 9919289800101480, "Title": "CVP ledenblad", "Extended Title ": ":tijdschrift van de CVP Lier.", "Place of Publication": "Lier", "Name of Publisher": "CVP", "Publication Frequency": "Bimonthly", "Coordinates": "Lier, Mechelen, Antwerpen, Vlaanderen, 2500, België / Belgique / Belgien", "Latitude": 51.131069, "Longitude": 4.5696516 }, "geometry": { "type": "Point", "coordinates": [ 4.5696516, 51.131069 ] } },
{ "type": "Feature", "properties": { "Book_ID": 9919363440101480, "Title": "Sprokkels.", "Extended Title ": null, "Place of Publication": "Aarschot", "Name of Publisher": "Sint-Jozefscollege", "Publication Frequency": "Quarterly", "Coordinates": "Aarschot, Leuven, Vlaams-Brabant, Vlaanderen, België / Belgique / Belgien", "Latitude": 50.9842743, "Longitude": 4.836429 }, "geometry": { "type": "Point", "coordinates": [ 4.836429, 50.9842743 ] } },
{ "type": "Feature", "properties": { "Book_ID": 9919363590101480, "Title": "Sint-Victor nu en toen", "Extended Title ": "ledenblad oudleerlingenbond Sint-Victor Alsemberg", "Place of Publication": "Alsemberg", "Name of Publisher": "Sint-Victor", "Publication Frequency": "Quarterly", "Coordinates": "Alsemberg, Beersel, Halle-Vilvoorde, Vlaams-Brabant, 1652, België / Belgique / Belgien", "Latitude": 50.7419942, "Longitude": 4.3383125 }, "geometry": { "type": "Point", "coordinates": [ 4.3383125, 50.7419942 ] } },
{ "type": "Feature", "properties": { "Book_ID": 9919383320101480, "Title": "(Unlisted)", "Extended Title ": null, "Place of Publication": "Bruxelles", "Name of Publisher": "Formation Education Culture", "Publication Frequency": "Unknown", "Coordinates": "Bruxelles - Brussel, Ville de Bruxelles - Stad Brussel, Brussel-Hoofdstad - Bruxelles-Capitale, Région de Bruxelles-Capitale - Brussels Hoofdstedelijk Gewest, België / Belgique / Belgien", "Latitude": 50.8465573, "Longitude": 4.351697 }, "geometry": { "type": "Point", "coordinates": [ 4.351697, 50.8465573 ] } },
{ "type": "Feature", "properties": { "Book_ID": 9919383680101480, "Title": "Nieuws uit St.-Thomas.", "Extended Title ": null, "Place of Publication": "Bruxelles", "Name of Publisher": "Sint-Thomasinstituut", "Publication Frequency": "Quarterly", "Coordinates": "Bruxelles - Brussel, Ville de Bruxelles - Stad Brussel, Brussel-Hoofdstad - Bruxelles-Capitale, Région de Bruxelles-Capitale - Brussels Hoofdstedelijk Gewest, België / Belgique / Belgien", "Latitude": 50.8465573, "Longitude": 4.351697 }, "geometry": { "type": "Point", "coordinates": [ 4.351697, 50.8465573 ] } },
{ "type": "Feature", "properties": { "Book_ID": 9919390580101480, "Title": "SJB kontakt.", "Extended Title ": null, "Place of Publication": "Beringen", "Name of Publisher": "Sint-Jozefscollege", "Publication Frequency": "Bimonthly", "Coordinates": "Beringen, Hasselt, Limburg, België / Belgique / Belgien", "Latitude": 51.0489641, "Longitude": 5.2266869 }, "geometry": { "type": "Point", "coordinates": [ 5.2266869, 51.0489641 ] } },
{ "type": "Feature", "properties": { "Book_ID": 9919431440101480, "Title": "Globeke.", "Extended Title ": null, "Place of Publication": "Heverlee", "Name of Publisher": "Heilig-Hartinstituut Heverlee. VSO-3e graad", "Publication Frequency": "Quarterly", "Coordinates": "Heverlee, Leuven, Vlaams-Brabant, Vlaanderen, 3001, België / Belgique / Belgien", "Latitude": 50.8645908, "Longitude": 4.6937736 }, "geometry": { "type": "Point", "coordinates": [ 4.6937736, 50.8645908 ] } },
{ "type": "Feature", "properties": { "Book_ID": 9919460870101480, "Title": "Conscience universelle.", "Extended Title ": null, "Place of Publication": "Liège", "Name of Publisher": "Conscience universelle", "Publication Frequency": "Monthly", "Coordinates": "Liège, Wallonie, 4000, België / Belgique / Belgien", "Latitude": 50.6450944, "Longitude": 5.5736112 }, "geometry": { "type": "Point", "coordinates": [ 5.5736112, 50.6450944 ] } },
{ "type": "Feature", "properties": { "Book_ID": 9919461020101480, "Title": "In 't kort", "Extended Title ": ": van Georges De Corte.", "Place of Publication": "Antwerpen", "Name of Publisher": "In 't kort", "Publication Frequency": "Quarterly", "Coordinates": "Antwerpen, Vlaanderen, België / Belgique / Belgien", "Latitude": 51.2211097, "Longitude": 4.3997081 }, "geometry": { "type": "Point", "coordinates": [ 4.3997081, 51.2211097 ] } },
{ "type": "Feature", "properties": { "Book_ID": 9919468900101480, "Title": "Slik : Sint-Lodewijkse informatiekrant.", "Extended Title ": null, "Place of Publication": "Genk", "Name of Publisher": "Technisch instituut Sint-Lodewijk", "Publication Frequency": "Unknown", "Coordinates": "Genk, Hasselt, Limburg, 3600, België / Belgique / Belgien", "Latitude": 50.9654864, "Longitude": 5.5001456 }, "geometry": { "type": "Point", "coordinates": [ 5.5001456, 50.9654864 ] } },
{ "type": "Feature", "properties": { "Book_ID": 9919481220101480, "Title": "BIM-meldingen.", "Extended Title ": null, "Place of Publication": "Mechelen", "Name of Publisher": "Berthoutinstituut", "Publication Frequency": "Quarterly", "Coordinates": "Mechelen, Antwerpen, Vlaanderen, België / Belgique / Belgien", "Latitude": 51.0281381, "Longitude": 4.4803453 }, "geometry": { "type": "Point", "coordinates": [ 4.4803453, 51.0281381 ] } },
{ "type": "Feature", "properties": { "Book_ID": 9919497700101480, "Title": "Autrement", "Extended Title ": "revue du Groupement national des cadres.", "Place of Publication": "Bruxelles", "Name of Publisher": "Groupement national des cadres", "Publication Frequency": "Bimonthly", "Coordinates": "Bruxelles - Brussel, Ville de Bruxelles - Stad Brussel, Brussel-Hoofdstad - Bruxelles-Capitale, Région de Bruxelles-Capitale - Brussels Hoofdstedelijk Gewest, België / Belgique / Belgien", "Latitude": 50.8465573, "Longitude": 4.351697 }, "geometry": { "type": "Point", "coordinates": [ 4.351697, 50.8465573 ] } },
{ "type": "Feature", "properties": { "Book_ID": 9919503820101480, "Title": "SM nieuws.", "Extended Title ": null, "Place of Publication": "Leuven", "Name of Publisher": "Sancta Maria-Instituut", "Publication Frequency": "Quarterly", "Coordinates": "Leuven, Vlaams-Brabant, Vlaanderen, België / Belgique / Belgien", "Latitude": 50.879202, "Longitude": 4.7011675 }, "geometry": { "type": "Point", "coordinates": [ 4.7011675, 50.879202 ] } },
{ "type": "Feature", "properties": { "Book_ID": 9919545240101480, "Title": "Geen kommentaar.", "Extended Title ": null, "Place of Publication": "Sint-Pieters-Woluwe", "Name of Publisher": "Sint-Jozefscollege", "Publication Frequency": "Monthly", "Coordinates": "Woluwe-Saint-Pierre - Sint-Pieters-Woluwe, Brussel-Hoofdstad - Bruxelles-Capitale, Région de Bruxelles-Capitale - Brussels Hoofdstedelijk Gewest, 1150, België / Belgique / Belgien", "Latitude": 50.8370253, "Longitude": 4.4274636 }, "geometry": { "type": "Point", "coordinates": [ 4.4274636, 50.8370253 ] } },
{ "type": "Feature", "properties": { "Book_ID": 9919545500101480, "Title": "Schakels : schoolkrantje van de schoolgemeenschap van het aangenomen college-seminarie internaat.", "Extended Title ": null, "Place of Publication": "Sint-Truiden", "Name of Publisher": "Schakels", "Publication Frequency": "Semiannual", "Coordinates": "Sint-Truiden, Hasselt, Limburg, Vlaanderen, België / Belgique / Belgien", "Latitude": 50.8152784, "Longitude": 5.1858896 }, "geometry": { "type": "Point", "coordinates": [ 5.1858896, 50.8152784 ] } },
{ "type": "Feature", "properties": { "Book_ID": 9919580570101480, "Title": "Binnen en buiten.", "Extended Title ": null, "Place of Publication": "Maasmechelen", "Name of Publisher": "Sint-Barbara-instituut", "Publication Frequency": "Quarterly", "Coordinates": "Maasmechelen, Tongeren, Limburg, België / Belgique / Belgien", "Latitude": 50.9635024, "Longitude": 5.696445 }, "geometry": { "type": "Point", "coordinates": [ 5.696445, 50.9635024 ] } },
{ "type": "Feature", "properties": { "Book_ID": 9919590990101480, "Title": "'t Blokbeestje", "Extended Title ": "tijdschrift van het Don Bosco technisch instituut Sint-Denijs-Westrem.", "Place of Publication": "Sint-Denijs-Westrem", "Name of Publisher": "Don Bosco", "Publication Frequency": "Unknown", "Coordinates": "Sint-Denijs-Westrem, Gent, Oost-Vlaanderen, 9051, België / Belgique / Belgien", "Latitude": 51.0199405, "Longitude": 3.6676767 }, "geometry": { "type": "Point", "coordinates": [ 3.6676767, 51.0199405 ] } },
{ "type": "Feature", "properties": { "Book_ID": 9919628130101480, "Title": "Blokbeest", "Extended Title ": "blad voor en door de leerlingen van de VMS.", "Place of Publication": "Zonhoven", "Name of Publisher": "VMS", "Publication Frequency": "Three times a year", "Coordinates": "Zonhoven, Hasselt, Limburg, 3520, België / Belgique / Belgien", "Latitude": 50.9909835, "Longitude": 5.3677683 }, "geometry": { "type": "Point", "coordinates": [ 5.3677683, 50.9909835 ] } },
{ "type": "Feature", "properties": { "Book_ID": 9919640440101480, "Title": "KSO-berichten-Borgloon", "Extended Title ": ": tijdschrift van het katholiek secundair onderwijs te Borgloon.", "Place of Publication": "Borgloon", "Name of Publisher": "KSO-berichten-Borgloon", "Publication Frequency": "Quarterly", "Coordinates": "Borgloon, Tongeren, Limburg, 3840, België / Belgique / Belgien", "Latitude": 50.8024529, "Longitude": 5.3435704 }, "geometry": { "type": "Point", "coordinates": [ 5.3435704, 50.8024529 ] } },
{ "type": "Feature", "properties": { "Book_ID": 9919654910101480, "Title": "SPC schoolkrantje.", "Extended Title ": null, "Place of Publication": "Houthalen", "Name of Publisher": "Sint-Pauluscollege", "Publication Frequency": "Quarterly", "Coordinates": "Houthalen, Houthalen-Helchteren, Maaseik, Limburg, 3530, België / Belgique / Belgien", "Latitude": 51.031137, "Longitude": 5.3720755 }, "geometry": { "type": "Point", "coordinates": [ 5.3720755, 51.031137 ] } },
{ "type": "Feature", "properties": { "Book_ID": 9919655240101480, "Title": "Don Bosco nieuws.", "Extended Title ": null, "Place of Publication": "Haacht", "Name of Publisher": "Don Bosco", "Publication Frequency": "Quarterly", "Coordinates": "Haacht, Leuven, Vlaams-Brabant, Vlaanderen, 3150, België / Belgique / Belgien", "Latitude": 50.9769474, "Longitude": 4.6383121 }, "geometry": { "type": "Point", "coordinates": [ 4.6383121, 50.9769474 ] } },
{ "type": "Feature", "properties": { "Book_ID": 9919689860101480, "Title": "Onze soldaat.", "Extended Title ": null, "Place of Publication": "Gent", "Name of Publisher": "MILAC", "Publication Frequency": "Monthly", "Coordinates": "Gent, Oost-Vlaanderen, Vlaanderen, België / Belgique / Belgien", "Latitude": 51.0538286, "Longitude": 3.7250121 }, "geometry": { "type": "Point", "coordinates": [ 3.7250121, 51.0538286 ] } },
{ "type": "Feature", "properties": { "Book_ID": 9919690130101480, "Title": "Love.", "Extended Title ": null, "Place of Publication": "Laarne", "Name of Publisher": "MILAC", "Publication Frequency": "Monthly", "Coordinates": "Laarne, Dendermonde, Oost-Vlaanderen, Vlaanderen, 9270, België / Belgique / Belgien", "Latitude": 51.029657, "Longitude": 3.8504738 }, "geometry": { "type": "Point", "coordinates": [ 3.8504738, 51.029657 ] } },
{ "type": "Feature", "properties": { "Book_ID": 9919690740101480, "Title": "'t Deerlijknaarke.", "Extended Title ": null, "Place of Publication": "Deerlijk", "Name of Publisher": "MILAC", "Publication Frequency": "Monthly", "Coordinates": "Deerlijk, Kortrijk, West-Vlaanderen, 8540, België / Belgique / Belgien", "Latitude": 50.83940065, "Longitude": 3.3627926635249863 }, "geometry": { "type": "Point", "coordinates": [ 3.362792663524986, 50.83940065 ] } },
{ "type": "Feature", "properties": { "Book_ID": 9919690770101480, "Title": "'t Diegemnerke.", "Extended Title ": null, "Place of Publication": "Diegem", "Name of Publisher": "MILAC", "Publication Frequency": "Monthly", "Coordinates": "Diegem, Machelen, Halle-Vilvoorde, Vlaams-Brabant, Vlaanderen, 1831, België / Belgique / Belgien", "Latitude": 50.8945555, "Longitude": 4.4365042 }, "geometry": { "type": "Point", "coordinates": [ 4.4365042, 50.8945555 ] } },
{ "type": "Feature", "properties": { "Book_ID": 9919690890101480, "Title": "Samen met Milac Neerharen en Rekem er door heen!", "Extended Title ": null, "Place of Publication": "Neerharen", "Name of Publisher": "MILAC", "Publication Frequency": "Unknown", "Coordinates": "Neerharen, Lanaken, Tongeren, Limburg, België / Belgique / Belgien", "Latitude": 50.907778, "Longitude": 5.680982 }, "geometry": { "type": "Point", "coordinates": [ 5.680982, 50.907778 ] } },
{ "type": "Feature", "properties": { "Book_ID": 9919700180101480, "Title": "D'hei.", "Extended Title ": null, "Place of Publication": "Brasschaat", "Name of Publisher": "MILAC", "Publication Frequency": "Monthly", "Coordinates": "Brasschaat, Antwerpen, Vlaanderen, 2930, België / Belgique / Belgien", "Latitude": 51.2900693, "Longitude": 4.4917295 }, "geometry": { "type": "Point", "coordinates": [ 4.4917295, 51.2900693 ] } },
{ "type": "Feature", "properties": { "Book_ID": 9919706040101480, "Title": "Mazzarelletjes.", "Extended Title ": null, "Place of Publication": "Bijgaarden", "Name of Publisher": "Maria Mazzarello instituut", "Publication Frequency": "Bimonthly", "Coordinates": "Groot-Bijgaarden, Dilbeek, Halle-Vilvoorde, Vlaams-Brabant, 1702, België / Belgique / Belgien", "Latitude": 50.8707084, "Longitude": 4.2651493 }, "geometry": { "type": "Point", "coordinates": [ 4.2651493, 50.8707084 ] } },
{ "type": "Feature", "properties": { "Book_ID": 9919706880101480, "Title": "Geef acht!", "Extended Title ": null, "Place of Publication": "Buggenhout", "Name of Publisher": "MILAC", "Publication Frequency": "Monthly", "Coordinates": "Buggenhout, Dendermonde, Oost-Vlaanderen, Vlaanderen, 9255, België / Belgique / Belgien", "Latitude": 51.0152271, "Longitude": 4.2022689 }, "geometry": { "type": "Point", "coordinates": [ 4.2022689, 51.0152271 ] } },
{ "type": "Feature", "properties": { "Book_ID": 9919716800101480, "Title": "Bruxelles-sud.", "Extended Title ": null, "Place of Publication": "Liège", "Name of Publisher": "Rédemptoristes. Secrétariat provincial", "Publication Frequency": "Unknown", "Coordinates": "Liège, Wallonie, 4000, België / Belgique / Belgien", "Latitude": 50.6450944, "Longitude": 5.5736112 }, "geometry": { "type": "Point", "coordinates": [ 5.5736112, 50.6450944 ] } },
{ "type": "Feature", "properties": { "Book_ID": 9919721250101480, "Title": "CSSR communicationes.", "Extended Title ": null, "Place of Publication": "Roma", "Name of Publisher": "CSSR communicationes", "Publication Frequency": "Unknown", "Coordinates": "Roma, Roma Capitale, Lazio, Italia", "Latitude": 41.8933203, "Longitude": 12.4829321 }, "geometry": { "type": "Point", "coordinates": [ 12.4829321, 41.8933203 ] } },
{ "type": "Feature", "properties": { "Book_ID": 9920072460101480, "Title": "Wisjetal", "Extended Title ": ":oudleerlingenblad lyceum Ieper.", "Place of Publication": "Ieper", "Name of Publisher": "Lyceum", "Publication Frequency": "Quarterly", "Coordinates": "Ieper, West-Vlaanderen, 8900, België / Belgique / Belgien", "Latitude": 50.85169675, "Longitude": 2.8914736832758958 }, "geometry": { "type": "Point", "coordinates": [ 2.891473683275896, 50.85169675 ] } },
{ "type": "Feature", "properties": { "Book_ID": 9920084950101480, "Title": "Echo.", "Extended Title ": null, "Place of Publication": "Roosdaal", "Name of Publisher": "Immaculata Maria instituut", "Publication Frequency": "Unknown", "Coordinates": "Roosdaal, Halle-Vilvoorde, Vlaams-Brabant, Vlaanderen, België / Belgique / Belgien", "Latitude": 50.8341383, "Longitude": 4.0972238 }, "geometry": { "type": "Point", "coordinates": [ 4.0972238, 50.8341383 ] } },
{ "type": "Feature", "properties": { "Book_ID": 9920086260101480, "Title": "Krokant.", "Extended Title ": null, "Place of Publication": "Sint-Lambrechts-Woluwe", "Name of Publisher": "Instituut van de voorzienigheid", "Publication Frequency": "Bimonthly", "Coordinates": "Woluwe-Saint-Lambert - Sint-Lambrechts-Woluwe, Brussel-Hoofdstad - Bruxelles-Capitale, Région de Bruxelles-Capitale - Brussels Hoofdstedelijk Gewest, 1200, België / Belgique / Belgien", "Latitude": 50.8430448, "Longitude": 4.4256732 }, "geometry": { "type": "Point", "coordinates": [ 4.4256732, 50.8430448 ] } },
{ "type": "Feature", "properties": { "Book_ID": 9920120310101480, "Title": "Woen.", "Extended Title ": null, "Place of Publication": "Bruxelles", "Name of Publisher": "Don Bosco", "Publication Frequency": "Bimonthly", "Coordinates": "Bruxelles - Brussel, Ville de Bruxelles - Stad Brussel, Brussel-Hoofdstad - Bruxelles-Capitale, Région de Bruxelles-Capitale - Brussels Hoofdstedelijk Gewest, België / Belgique / Belgien", "Latitude": 50.8465573, "Longitude": 4.351697 }, "geometry": { "type": "Point", "coordinates": [ 4.351697, 50.8465573 ] } },
{ "type": "Feature", "properties": { "Book_ID": 9920158170101480, "Title": "'t Is tijd.", "Extended Title ": null, "Place of Publication": "Maaseik", "Name of Publisher": "Technisch instituut Sint-Jansberg", "Publication Frequency": "Unknown", "Coordinates": "Maaseik, Limburg, 3680, België / Belgique / Belgien", "Latitude": 51.0947181, "Longitude": 5.791733 }, "geometry": { "type": "Point", "coordinates": [ 5.791733, 51.0947181 ] } },
{ "type": "Feature", "properties": { "Book_ID": 9920158190101480, "Title": "Sint-Jansberg", "Extended Title ": ": tijdschrift voor oudleerlingen.", "Place of Publication": "Maaseik", "Name of Publisher": "Technisch instituut Sint-Jansberg", "Publication Frequency": "Monthly", "Coordinates": "Maaseik, Limburg, 3680, België / Belgique / Belgien", "Latitude": 51.0947181, "Longitude": 5.791733 }, "geometry": { "type": "Point", "coordinates": [ 5.791733, 51.0947181 ] } },
{ "type": "Feature", "properties": { "Book_ID": 9920158280101480, "Title": "Luminata", "Extended Title ": "Informatieblad van de Middenschool en Instituut Onbevlekt Hart van Maria.", "Place of Publication": "Lummen", "Name of Publisher": "Middenschool en instituut Onbevlekt Hart van Maria", "Publication Frequency": "Bimonthly", "Coordinates": "Lummen, Hasselt, Limburg, 3560, België / Belgique / Belgien", "Latitude": 50.9862157, "Longitude": 5.1918579 }, "geometry": { "type": "Point", "coordinates": [ 5.1918579, 50.9862157 ] } },
{ "type": "Feature", "properties": { "Book_ID": 9920158290101480, "Title": "Jubeljaarinfo.", "Extended Title ": null, "Place of Publication": "Hasselt", "Name of Publisher": "Humaniora Virga Jesse", "Publication Frequency": "Quarterly", "Coordinates": "Hasselt, Limburg, België / Belgique / Belgien", "Latitude": 50.9303735, "Longitude": 5.3378043 }, "geometry": { "type": "Point", "coordinates": [ 5.3378043, 50.9303735 ] } },
{ "type": "Feature", "properties": { "Book_ID": 9920215980101480, "Title": "Laien heute.", "Extended Title ": "Informationsdienst.", "Place of Publication": "Vatikanstadt", "Name of Publisher": "Päpstlicher Rat für die Laien", "Publication Frequency": "Unknown", "Coordinates": "Civitas Vaticana - Città del Vaticano, 00120, Civitas Vaticana - Città del Vaticano", "Latitude": 41.9034912, "Longitude": 12.4528349 }, "geometry": { "type": "Point", "coordinates": [ 12.4528349, 41.9034912 ] } },
{ "type": "Feature", "properties": { "Book_ID": 9920234830101480, "Title": "Lotgevallen.", "Extended Title ": null, "Place of Publication": "Lot", "Name of Publisher": "MILAC", "Publication Frequency": "Unknown", "Coordinates": "Lot, Occitanie, France métropolitaine, France", "Latitude": 44.6249918, "Longitude": 1.6657742169753669 }, "geometry": { "type": "Point", "coordinates": [ 1.665774216975367, 44.6249918 ] } },
{ "type": "Feature", "properties": { "Book_ID": 9920246650101480, "Title": "MILAC Boom.", "Extended Title ": null, "Place of Publication": "Boom", "Name of Publisher": "MILAC", "Publication Frequency": "Unknown", "Coordinates": "Boom, Antwerpen, Vlaanderen, 2850, België / Belgique / Belgien", "Latitude": 51.0873789, "Longitude": 4.3667216 }, "geometry": { "type": "Point", "coordinates": [ 4.3667216, 51.0873789 ] } },
{ "type": "Feature", "properties": { "Book_ID": 9920250380101480, "Title": "'t Milacske.", "Extended Title ": null, "Place of Publication": "Wevelgem", "Name of Publisher": "MILAC", "Publication Frequency": "Monthly", "Coordinates": "Wevelgem, Kortrijk, West-Vlaanderen, 8560, België / Belgique / Belgien", "Latitude": 50.8121065, "Longitude": 3.1864393078698976 }, "geometry": { "type": "Point", "coordinates": [ 3.186439307869898, 50.8121065 ] } },
{ "type": "Feature", "properties": { "Book_ID": 9922761030101480, "Title": "Kompas", "Extended Title ": ": een tijdschrift voor rojo's.", "Place of Publication": "Kemmel", "Name of Publisher": "KSA", "Publication Frequency": "Unknown", "Coordinates": "Kemmel, Heuvelland, Ieper, West-Vlaanderen, 8956, België / Belgique / Belgien", "Latitude": 50.7828552, "Longitude": 2.8258709 }, "geometry": { "type": "Point", "coordinates": [ 2.8258709, 50.7828552 ] } },
{ "type": "Feature", "properties": { "Book_ID": 9922773930101480, "Title": "(Unlisted)", "Extended Title ": null, "Place of Publication": "Herselt", "Name of Publisher": "ACV", "Publication Frequency": "Unknown", "Coordinates": "Herselt, Turnhout, Antwerpen, Vlaanderen, 2230, België / Belgique / Belgien", "Latitude": 51.05545425, "Longitude": 4.9018135049310043 }, "geometry": { "type": "Point", "coordinates": [ 4.901813504931004, 51.05545425 ] } },
{ "type": "Feature", "properties": { "Book_ID": 9922776770101480, "Title": "(Unlisted)", "Extended Title ": "Banblad Kabouters-Jongknapen St.Kristoffel.", "Place of Publication": "Brugge", "Name of Publisher": "KSA", "Publication Frequency": "Unknown", "Coordinates": "Brugge, West-Vlaanderen, België / Belgique / Belgien", "Latitude": 51.2085526, "Longitude": 3.226772 }, "geometry": { "type": "Point", "coordinates": [ 3.226772, 51.2085526 ] } },
{ "type": "Feature", "properties": { "Book_ID": 9922778880101480, "Title": "Fast Food.", "Extended Title ": null, "Place of Publication": "Loppem", "Name of Publisher": "KSA", "Publication Frequency": "Monthly", "Coordinates": "Loppem, Zedelgem, Brugge, West-Vlaanderen, 8210, België / Belgique / Belgien", "Latitude": 51.1401957, "Longitude": 3.1816404345537777 }, "geometry": { "type": "Point", "coordinates": [ 3.181640434553778, 51.1401957 ] } },
{ "type": "Feature", "properties": { "Book_ID": 9922787990101480, "Title": "Splats", "Extended Title ": ": kabouterblad Male.", "Place of Publication": "Male", "Name of Publisher": "KSA", "Publication Frequency": "Unknown", "Coordinates": "މާލެ, ދިވެހިރާއްޖެ", "Latitude": 4.1779879, "Longitude": 73.5107387 }, "geometry": { "type": "Point", "coordinates": [ 73.5107387, 4.1779879 ] } },
{ "type": "Feature", "properties": { "Book_ID": 9922790110101480, "Title": "'t (D)opkikkertje.", "Extended Title ": null, "Place of Publication": "Mortsel", "Name of Publisher": "ACV", "Publication Frequency": "Quarterly", "Coordinates": "Mortsel, Antwerpen, Vlaanderen, 2640, België / Belgique / Belgien", "Latitude": 51.1704119, "Longitude": 4.4566996 }, "geometry": { "type": "Point", "coordinates": [ 4.4566996, 51.1704119 ] } },
{ "type": "Feature", "properties": { "Book_ID": 9922795720101480, "Title": "Frassati-palantir.", "Extended Title ": null, "Place of Publication": "Brugge", "Name of Publisher": "KSA", "Publication Frequency": "Three times a year", "Coordinates": "Brugge, West-Vlaanderen, België / Belgique / Belgien", "Latitude": 51.2085526, "Longitude": 3.226772 }, "geometry": { "type": "Point", "coordinates": [ 3.226772, 51.2085526 ] } },
{ "type": "Feature", "properties": { "Book_ID": 9922795840101480, "Title": "Nieuws van onder 't mutsje.", "Extended Title ": null, "Place of Publication": "Brugge", "Name of Publisher": "KSA", "Publication Frequency": "Unknown", "Coordinates": "Brugge, West-Vlaanderen, België / Belgique / Belgien", "Latitude": 51.2085526, "Longitude": 3.226772 }, "geometry": { "type": "Point", "coordinates": [ 3.226772, 51.2085526 ] } },
{ "type": "Feature", "properties": { "Book_ID": 9922799360101480, "Title": "'t Trefferke.", "Extended Title ": null, "Place of Publication": "Merksem", "Name of Publisher": "ACV", "Publication Frequency": "Unknown", "Coordinates": "Merksem, Antwerpen, Vlaanderen, 2170, België / Belgique / Belgien", "Latitude": 51.2438894, "Longitude": 4.4397179 }, "geometry": { "type": "Point", "coordinates": [ 4.4397179, 51.2438894 ] } },
{ "type": "Feature", "properties": { "Book_ID": 9922802240101480, "Title": "Kwiek.", "Extended Title ": null, "Place of Publication": "Assebroek", "Name of Publisher": "KSA", "Publication Frequency": "Unknown", "Coordinates": "Assebroek, Brugge, West-Vlaanderen, 8310, België / Belgique / Belgien", "Latitude": 51.1932727, "Longitude": 3.2572642828960765 }, "geometry": { "type": "Point", "coordinates": [ 3.257264282896077, 51.1932727 ] } },
{ "type": "Feature", "properties": { "Book_ID": 9922802580101480, "Title": "Kader", "Extended Title ": ": bondsblad KSA Sint-Trudo Assebroek.", "Place of Publication": "Assebroek", "Name of Publisher": "KSA", "Publication Frequency": "Unknown", "Coordinates": "Assebroek, Brugge, West-Vlaanderen, 8310, België / Belgique / Belgien", "Latitude": 51.1932727, "Longitude": 3.2572642828960765 }, "geometry": { "type": "Point", "coordinates": [ 3.257264282896077, 51.1932727 ] } },
{ "type": "Feature", "properties": { "Book_ID": 9922803260101480, "Title": "Kabukken.", "Extended Title ": null, "Place of Publication": "Buggenhout", "Name of Publisher": "KSA-VKSJ", "Publication Frequency": "Unknown", "Coordinates": "Buggenhout, Dendermonde, Oost-Vlaanderen, Vlaanderen, 9255, België / Belgique / Belgien", "Latitude": 51.0152271, "Longitude": 4.2022689 }, "geometry": { "type": "Point", "coordinates": [ 4.2022689, 51.0152271 ] } },
{ "type": "Feature", "properties": { "Book_ID": 9922815440101480, "Title": "Neem je touwtjes in handen.", "Extended Title ": null, "Place of Publication": "Aalter", "Name of Publisher": "KSA-VKSJ", "Publication Frequency": "Bimonthly", "Coordinates": "Aalter, Gent, Oost-Vlaanderen, Vlaanderen, België / Belgique / Belgien", "Latitude": 51.083894, "Longitude": 3.4485192 }, "geometry": { "type": "Point", "coordinates": [ 3.4485192, 51.083894 ] } },
{ "type": "Feature", "properties": { "Book_ID": 9922815470101480, "Title": "Groepsblad.", "Extended Title ": null, "Place of Publication": "Aalter", "Name of Publisher": "KSA-VKSJ", "Publication Frequency": "Unknown", "Coordinates": "Aalter, Gent, Oost-Vlaanderen, Vlaanderen, België / Belgique / Belgien", "Latitude": 51.083894, "Longitude": 3.4485192 }, "geometry": { "type": "Point", "coordinates": [ 3.4485192, 51.083894 ] } },
{ "type": "Feature", "properties": { "Book_ID": 9922815540101480, "Title": "De sjelter", "Extended Title ": "tijdschrift van KSA-VKSJ Aalter.", "Place of Publication": "Aalter", "Name of Publisher": "KSA-VKSJ", "Publication Frequency": "Unknown", "Coordinates": "Aalter, Gent, Oost-Vlaanderen, Vlaanderen, België / Belgique / Belgien", "Latitude": 51.083894, "Longitude": 3.4485192 }, "geometry": { "type": "Point", "coordinates": [ 3.4485192, 51.083894 ] } },
{ "type": "Feature", "properties": { "Book_ID": 9922815700101480, "Title": "Ga-spa-zet.", "Extended Title ": null, "Place of Publication": "Brugge", "Name of Publisher": "KSA", "Publication Frequency": "Unknown", "Coordinates": "Brugge, West-Vlaanderen, België / Belgique / Belgien", "Latitude": 51.2085526, "Longitude": 3.226772 }, "geometry": { "type": "Point", "coordinates": [ 3.226772, 51.2085526 ] } },
{ "type": "Feature", "properties": { "Book_ID": 9922816370101480, "Title": "Spido", "Extended Title ": "schoolkrantje.", "Place of Publication": "Anderlecht", "Name of Publisher": "Basisschoolgemeenschap Sint-Pieter en Sint-Guido", "Publication Frequency": "Unknown", "Coordinates": "Anderlecht, Brussel-Hoofdstad - Bruxelles-Capitale, Région de Bruxelles-Capitale - Brussels Hoofdstedelijk Gewest, 1070, België / Belgique / Belgien", "Latitude": 50.8390983, "Longitude": 4.3296526 }, "geometry": { "type": "Point", "coordinates": [ 4.3296526, 50.8390983 ] } },
{ "type": "Feature", "properties": { "Book_ID": 9922822910101480, "Title": "Dossier SEME.", "Extended Title ": null, "Place of Publication": "Bruxelles", "Name of Publisher": "Service missionnaire des enfants", "Publication Frequency": "Quarterly", "Coordinates": "Bruxelles - Brussel, Ville de Bruxelles - Stad Brussel, Brussel-Hoofdstad - Bruxelles-Capitale, Région de Bruxelles-Capitale - Brussels Hoofdstedelijk Gewest, België / Belgique / Belgien", "Latitude": 50.8465573, "Longitude": 4.351697 }, "geometry": { "type": "Point", "coordinates": [ 4.351697, 50.8465573 ] } },
{ "type": "Feature", "properties": { "Book_ID": 9922830410101480, "Title": "Lavalas", "Extended Title ": "kwartaalblad Withuis-Volontariaat", "Place of Publication": "Merelbeke", "Name of Publisher": "Withuis-Volontariaat", "Publication Frequency": "Quarterly", "Coordinates": "Merelbeke, Gent, Oost-Vlaanderen, Vlaanderen, 9820, België / Belgique / Belgien", "Latitude": 50.9942924, "Longitude": 3.7459119 }, "geometry": { "type": "Point", "coordinates": [ 3.7459119, 50.9942924 ] } },
{ "type": "Feature", "properties": { "Book_ID": 9922833660101480, "Title": "Verbist study notes", "Extended Title ": null, "Place of Publication": "Taipei", "Name of Publisher": "Verbiest foundation", "Publication Frequency": "Other", "Coordinates": "臺北市, 臺灣", "Latitude": 25.0375198, "Longitude": 121.5636796 }, "geometry": { "type": "Point", "coordinates": [ 121.5636796, 25.0375198 ] } },
{ "type": "Feature", "properties": { "Book_ID": 9922870740101480, "Title": "Krabbel.", "Extended Title ": null, "Place of Publication": "Beselare", "Name of Publisher": "Chiro", "Publication Frequency": "Quarterly", "Coordinates": "Beselare, Zonnebeke, Ieper, West-Vlaanderen, België / Belgique / Belgien", "Latitude": 50.84815, "Longitude": 3.0244208 }, "geometry": { "type": "Point", "coordinates": [ 3.0244208, 50.84815 ] } },
{ "type": "Feature", "properties": { "Book_ID": 9922871850101480, "Title": "Knoop.", "Extended Title ": null, "Place of Publication": "Mortsel", "Name of Publisher": "VVKSM", "Publication Frequency": "Monthly", "Coordinates": "Mortsel, Antwerpen, Vlaanderen, 2640, België / Belgique / Belgien", "Latitude": 51.1704119, "Longitude": 4.4566996 }, "geometry": { "type": "Point", "coordinates": [ 4.4566996, 51.1704119 ] } },
{ "type": "Feature", "properties": { "Book_ID": 9922871950101480, "Title": "KSA Jongknapen Varsenare.", "Extended Title ": null, "Place of Publication": "Varsenare", "Name of Publisher": "KSA", "Publication Frequency": "Unknown", "Coordinates": "Varsenare, Jabbeke, Brugge, West-Vlaanderen, België / Belgique / Belgien", "Latitude": 51.1900214, "Longitude": 3.1433949 }, "geometry": { "type": "Point", "coordinates": [ 3.1433949, 51.1900214 ] } },
{ "type": "Feature", "properties": { "Book_ID": 9922871980101480, "Title": "'t Babbelutje.", "Extended Title ": null, "Place of Publication": "Varsenare", "Name of Publisher": "KSA", "Publication Frequency": "Bimonthly", "Coordinates": "Varsenare, Jabbeke, Brugge, West-Vlaanderen, België / Belgique / Belgien", "Latitude": 51.1900214, "Longitude": 3.1433949 }, "geometry": { "type": "Point", "coordinates": [ 3.1433949, 51.1900214 ] } },
{ "type": "Feature", "properties": { "Book_ID": 9922872020101480, "Title": "Recyclage.", "Extended Title ": null, "Place of Publication": "Varsenare", "Name of Publisher": "KSA", "Publication Frequency": "Monthly", "Coordinates": "Varsenare, Jabbeke, Brugge, West-Vlaanderen, België / Belgique / Belgien", "Latitude": 51.1900214, "Longitude": 3.1433949 }, "geometry": { "type": "Point", "coordinates": [ 3.1433949, 51.1900214 ] } },
{ "type": "Feature", "properties": { "Book_ID": 9922878430101480, "Title": "Okee!", "Extended Title ": null, "Place of Publication": "Temse", "Name of Publisher": "VKSJ", "Publication Frequency": "Quarterly", "Coordinates": "Temse, Sint-Niklaas, Oost-Vlaanderen, Vlaanderen, België / Belgique / Belgien", "Latitude": 51.1253635, "Longitude": 4.2133313 }, "geometry": { "type": "Point", "coordinates": [ 4.2133313, 51.1253635 ] } },
{ "type": "Feature", "properties": { "Book_ID": 9922880920101480, "Title": "Golfgedruis.", "Extended Title ": null, "Place of Publication": "Tielt", "Name of Publisher": "KSA", "Publication Frequency": "Unknown", "Coordinates": "Tielt, West-Vlaanderen, 8700, België / Belgique / Belgien", "Latitude": 50.99996475, "Longitude": 3.3414263284671195 }, "geometry": { "type": "Point", "coordinates": [ 3.34142632846712, 50.99996475 ] } },
{ "type": "Feature", "properties": { "Book_ID": 9922880930101480, "Title": "De knapenkrant.", "Extended Title ": null, "Place of Publication": "Tielt", "Name of Publisher": "KSA", "Publication Frequency": "Three times a year", "Coordinates": "Tielt, West-Vlaanderen, 8700, België / Belgique / Belgien", "Latitude": 50.99996475, "Longitude": 3.3414263284671195 }, "geometry": { "type": "Point", "coordinates": [ 3.34142632846712, 50.99996475 ] } },
{ "type": "Feature", "properties": { "Book_ID": 9922880960101480, "Title": "'t Robbedoezenlogboek.", "Extended Title ": null, "Place of Publication": "Tielt", "Name of Publisher": "KSA", "Publication Frequency": "Unknown", "Coordinates": "Tielt, West-Vlaanderen, 8700, België / Belgique / Belgien", "Latitude": 50.99996475, "Longitude": 3.3414263284671195 }, "geometry": { "type": "Point", "coordinates": [ 3.34142632846712, 50.99996475 ] } },
{ "type": "Feature", "properties": { "Book_ID": 9922881010101480, "Title": "'t Logboek.", "Extended Title ": null, "Place of Publication": "Tielt", "Name of Publisher": "KSA", "Publication Frequency": "Unknown", "Coordinates": "Tielt, West-Vlaanderen, 8700, België / Belgique / Belgien", "Latitude": 50.99996475, "Longitude": 3.3414263284671195 }, "geometry": { "type": "Point", "coordinates": [ 3.34142632846712, 50.99996475 ] } },
{ "type": "Feature", "properties": { "Book_ID": 9922881110101480, "Title": "De Robbedoesspiegel.", "Extended Title ": null, "Place of Publication": "Tielt", "Name of Publisher": "KSA", "Publication Frequency": "Quarterly", "Coordinates": "Tielt, West-Vlaanderen, 8700, België / Belgique / Belgien", "Latitude": 50.99996475, "Longitude": 3.3414263284671195 }, "geometry": { "type": "Point", "coordinates": [ 3.34142632846712, 50.99996475 ] } },
{ "type": "Feature", "properties": { "Book_ID": 9922881420101480, "Title": "(Unlisted)", "Extended Title ": null, "Place of Publication": "Varsenare", "Name of Publisher": "KSA", "Publication Frequency": "Unknown", "Coordinates": "Varsenare, Jabbeke, Brugge, West-Vlaanderen, België / Belgique / Belgien", "Latitude": 51.1900214, "Longitude": 3.1433949 }, "geometry": { "type": "Point", "coordinates": [ 3.1433949, 51.1900214 ] } },
{ "type": "Feature", "properties": { "Book_ID": 9922888110101480, "Title": "Piefke.", "Extended Title ": null, "Place of Publication": "Vichte", "Name of Publisher": "KSA", "Publication Frequency": "Irregular", "Coordinates": "Vichte, Anzegem, Kortrijk, West-Vlaanderen, 8570, België / Belgique / Belgien", "Latitude": 50.8354873, "Longitude": 3.4048906 }, "geometry": { "type": "Point", "coordinates": [ 3.4048906, 50.8354873 ] } },
{ "type": "Feature", "properties": { "Book_ID": 9922889080101480, "Title": "Informations Spiritaines.", "Extended Title ": null, "Place of Publication": "Roma", "Name of Publisher": "Congregazione dello Spirito Santo", "Publication Frequency": "Unknown", "Coordinates": "Roma, Roma Capitale, Lazio, Italia", "Latitude": 41.8933203, "Longitude": 12.4829321 }, "geometry": { "type": "Point", "coordinates": [ 12.4829321, 41.8933203 ] } },
{ "type": "Feature", "properties": { "Book_ID": 9922889090101480, "Title": "Spiritan news.", "Extended Title ": null, "Place of Publication": "Roma", "Name of Publisher": "Congregazione dello Spirito Santo", "Publication Frequency": "Unknown", "Coordinates": "Roma, Roma Capitale, Lazio, Italia", "Latitude": 41.8933203, "Longitude": 12.4829321 }, "geometry": { "type": "Point", "coordinates": [ 12.4829321, 41.8933203 ] } },
{ "type": "Feature", "properties": { "Book_ID": 9922928410101480, "Title": "Jawadde.", "Extended Title ": null, "Place of Publication": "Brugge", "Name of Publisher": "ACV", "Publication Frequency": "Unknown", "Coordinates": "Brugge, West-Vlaanderen, België / Belgique / Belgien", "Latitude": 51.2085526, "Longitude": 3.226772 }, "geometry": { "type": "Point", "coordinates": [ 3.226772, 51.2085526 ] } },
{ "type": "Feature", "properties": { "Book_ID": 9922947460101480, "Title": "HOJ", "Extended Title ": "veertiendaags educatief tijdschrift voor leerlingen in groep 3 en 4 van de basisschool.", "Place of Publication": "Averbode", "Name of Publisher": "Altiora/Averbode", "Publication Frequency": "Biweekly", "Coordinates": "Averbode, Scherpenheuvel-Zichem, Leuven, Vlaams-Brabant, Vlaanderen, 3271, België / Belgique / Belgien", "Latitude": 51.0300217, "Longitude": 4.9797369 }, "geometry": { "type": "Point", "coordinates": [ 4.9797369, 51.0300217 ] } },
{ "type": "Feature", "properties": { "Book_ID": 9922968920101480, "Title": "VKW-info.", "Extended Title ": "West-Vlaanderen.", "Place of Publication": "Kortrijk", "Name of Publisher": "VKW", "Publication Frequency": "Monthly", "Coordinates": "Kortrijk, West-Vlaanderen, België / Belgique / Belgien", "Latitude": 50.8276429, "Longitude": 3.2659884 }, "geometry": { "type": "Point", "coordinates": [ 3.2659884, 50.8276429 ] } },
{ "type": "Feature", "properties": { "Book_ID": 9923066080101480, "Title": "'t Kereltje.", "Extended Title ": null, "Place of Publication": "Veurne", "Name of Publisher": "KSA", "Publication Frequency": "Three times a year", "Coordinates": "Veurne, West-Vlaanderen, Vlaanderen, 8630, België / Belgique / Belgien", "Latitude": 51.0724273, "Longitude": 2.6621323 }, "geometry": { "type": "Point", "coordinates": [ 2.6621323, 51.0724273 ] } },
{ "type": "Feature", "properties": { "Book_ID": 9923066130101480, "Title": "KSA start je mee.", "Extended Title ": null, "Place of Publication": "Waasmunster", "Name of Publisher": "KSA", "Publication Frequency": "Annual", "Coordinates": "Waasmunster, Dendermonde, Oost-Vlaanderen, Vlaanderen, 9250, België / Belgique / Belgien", "Latitude": 51.1097147, "Longitude": 4.0842158 }, "geometry": { "type": "Point", "coordinates": [ 4.0842158, 51.1097147 ] } },
{ "type": "Feature", "properties": { "Book_ID": 9923066890101480, "Title": "DOCEBO.", "Extended Title ": null, "Place of Publication": "Bruxelles", "Name of Publisher": "DOCEBO", "Publication Frequency": "Quarterly", "Coordinates": "Bruxelles - Brussel, Ville de Bruxelles - Stad Brussel, Brussel-Hoofdstad - Bruxelles-Capitale, Région de Bruxelles-Capitale - Brussels Hoofdstedelijk Gewest, België / Belgique / Belgien", "Latitude": 50.8465573, "Longitude": 4.351697 }, "geometry": { "type": "Point", "coordinates": [ 4.351697, 50.8465573 ] } },
{ "type": "Feature", "properties": { "Book_ID": 9923067060101480, "Title": "Bollobi.", "Extended Title ": null, "Place of Publication": "Heverlee", "Name of Publisher": "Heilig Hartinstituut", "Publication Frequency": "Quarterly", "Coordinates": "Heverlee, Leuven, Vlaams-Brabant, Vlaanderen, 3001, België / Belgique / Belgien", "Latitude": 50.8645908, "Longitude": 4.6937736 }, "geometry": { "type": "Point", "coordinates": [ 4.6937736, 50.8645908 ] } },
{ "type": "Feature", "properties": { "Book_ID": 9923067880101480, "Title": "'t Kavegeetje.", "Extended Title ": null, "Place of Publication": "Gullegem", "Name of Publisher": "Koninklijke fanfare", "Publication Frequency": "Quarterly", "Coordinates": "Gullegem, Wevelgem, Kortrijk, West-Vlaanderen, België / Belgique / Belgien", "Latitude": 50.8418565, "Longitude": 3.2045747 }, "geometry": { "type": "Point", "coordinates": [ 3.2045747, 50.8418565 ] } },
{ "type": "Feature", "properties": { "Book_ID": 9923092500101480, "Title": "(Unlisted)", "Extended Title ": null, "Place of Publication": "Roeselare", "Name of Publisher": "Koninklijke harmonie", "Publication Frequency": "Quarterly", "Coordinates": "Roeselare, West-Vlaanderen, 8800, België / Belgique / Belgien", "Latitude": 50.9444948, "Longitude": 3.124765 }, "geometry": { "type": "Point", "coordinates": [ 3.124765, 50.9444948 ] } },
{ "type": "Feature", "properties": { "Book_ID": 9923093930101480, "Title": "'t Sjampinjonsken.", "Extended Title ": null, "Place of Publication": "Wetteren", "Name of Publisher": "KSJ", "Publication Frequency": "Monthly", "Coordinates": "Wetteren, Dendermonde, Oost-Vlaanderen, Vlaanderen, 9230, België / Belgique / Belgien", "Latitude": 50.9983603, "Longitude": 3.8731040535437895 }, "geometry": { "type": "Point", "coordinates": [ 3.87310405354379, 50.9983603 ] } },
{ "type": "Feature", "properties": { "Book_ID": 9923101660101480, "Title": "Snuffelkrant.", "Extended Title ": null, "Place of Publication": "Zelem", "Name of Publisher": "KSJ", "Publication Frequency": "Quarterly", "Coordinates": "Zelem, Halen, Hasselt, Limburg, 3545, België / Belgique / Belgien", "Latitude": 50.9788799, "Longitude": 5.1026566 }, "geometry": { "type": "Point", "coordinates": [ 5.1026566, 50.9788799 ] } },
{ "type": "Feature", "properties": { "Book_ID": 9923103610101480, "Title": "Easternet", "Extended Title ": ": newsletter of Jesuits of Eastern Africa.", "Place of Publication": "Nairobi", "Name of Publisher": "Easternet", "Publication Frequency": "Unknown", "Coordinates": "Nairobi, Kenya", "Latitude": -1.30261485, "Longitude": 36.828842018137252 }, "geometry": { "type": "Point", "coordinates": [ 36.828842018137252, -1.30261485 ] } },
{ "type": "Feature", "properties": { "Book_ID": 9923119780101480, "Title": "'t Gauwelkrantje.", "Extended Title ": null, "Place of Publication": "Zwevegem", "Name of Publisher": "KSA", "Publication Frequency": "Quarterly", "Coordinates": "Zwevegem, Kortrijk, West-Vlaanderen, 8550, België / Belgique / Belgien", "Latitude": 50.8128396, "Longitude": 3.3331679 }, "geometry": { "type": "Point", "coordinates": [ 3.3331679, 50.8128396 ] } },
{ "type": "Feature", "properties": { "Book_ID": 9923120250101480, "Title": "De zwerftocht van Odysseus", "Extended Title ": "Jongknapenkamp KSA Kristus Koning Brugge.", "Place of Publication": "Brugge", "Name of Publisher": "KSA", "Publication Frequency": "Unknown", "Coordinates": "Brugge, West-Vlaanderen, België / Belgique / Belgien", "Latitude": 51.2085526, "Longitude": 3.226772 }, "geometry": { "type": "Point", "coordinates": [ 3.226772, 51.2085526 ] } },
{ "type": "Feature", "properties": { "Book_ID": 9923120300101480, "Title": "'t Deusjevoke.", "Extended Title ": null, "Place of Publication": "Zulte", "Name of Publisher": "KSA", "Publication Frequency": "Unknown", "Coordinates": "Zulte, Gent, Oost-Vlaanderen, 9870, België / Belgique / Belgien", "Latitude": 50.9400485, "Longitude": 3.4753055016346179 }, "geometry": { "type": "Point", "coordinates": [ 3.475305501634618, 50.9400485 ] } },
{ "type": "Feature", "properties": { "Book_ID": 9923121640101480, "Title": "Kringen.", "Extended Title ": null, "Place of Publication": "Gavere", "Name of Publisher": "KSA", "Publication Frequency": "Other", "Coordinates": "Gavere, Gent, Oost-Vlaanderen, 9890, België / Belgique / Belgien", "Latitude": 50.9292999, "Longitude": 3.6863506459883193 }, "geometry": { "type": "Point", "coordinates": [ 3.686350645988319, 50.9292999 ] } },
{ "type": "Feature", "properties": { "Book_ID": 9923139770101480, "Title": "CEMNL. Informations.", "Extended Title ": null, "Place of Publication": "Bruxelles", "Name of Publisher": "CEMNL", "Publication Frequency": "Monthly", "Coordinates": "Bruxelles - Brussel, Ville de Bruxelles - Stad Brussel, Brussel-Hoofdstad - Bruxelles-Capitale, Région de Bruxelles-Capitale - Brussels Hoofdstedelijk Gewest, België / Belgique / Belgien", "Latitude": 50.8465573, "Longitude": 4.351697 }, "geometry": { "type": "Point", "coordinates": [ 4.351697, 50.8465573 ] } },
{ "type": "Feature", "properties": { "Book_ID": 9923143450101480, "Title": "Samen werken.", "Extended Title ": null, "Place of Publication": "Boechout", "Name of Publisher": "Katholieke basisschool", "Publication Frequency": "Unknown", "Coordinates": "Boechout, Antwerpen, Vlaanderen, 2530, België / Belgique / Belgien", "Latitude": 51.1597261, "Longitude": 4.5098674838822266 }, "geometry": { "type": "Point", "coordinates": [ 4.509867483882227, 51.1597261 ] } },
{ "type": "Feature", "properties": { "Book_ID": 9923143640101480, "Title": "Stap voor stap gaan wij vooruit.", "Extended Title ": null, "Place of Publication": "Laken", "Name of Publisher": "Sint-Ursala basisschool", "Publication Frequency": "Unknown", "Coordinates": "Laeken - Laken, Ville de Bruxelles - Stad Brussel, Brussel-Hoofdstad - Bruxelles-Capitale, Région de Bruxelles-Capitale - Brussels Hoofdstedelijk Gewest, 1020, België / Belgique / Belgien", "Latitude": 50.883392, "Longitude": 4.3487134 }, "geometry": { "type": "Point", "coordinates": [ 4.3487134, 50.883392 ] } },
{ "type": "Feature", "properties": { "Book_ID": 9923143700101480, "Title": "'t Veldkapelletje.", "Extended Title ": null, "Place of Publication": "Bruxelles", "Name of Publisher": "Sint-Jozefsschool", "Publication Frequency": "Unknown", "Coordinates": "Bruxelles - Brussel, Ville de Bruxelles - Stad Brussel, Brussel-Hoofdstad - Bruxelles-Capitale, Région de Bruxelles-Capitale - Brussels Hoofdstedelijk Gewest, België / Belgique / Belgien", "Latitude": 50.8465573, "Longitude": 4.351697 }, "geometry": { "type": "Point", "coordinates": [ 4.351697, 50.8465573 ] } },
{ "type": "Feature", "properties": { "Book_ID": 9923156420101480, "Title": "Leef mee.", "Extended Title ": null, "Place of Publication": "Duisburg", "Name of Publisher": "Sint-Anna", "Publication Frequency": "Unknown", "Coordinates": "Duisburg, Nordrhein-Westfalen, Deutschland", "Latitude": 51.434999, "Longitude": 6.759562 }, "geometry": { "type": "Point", "coordinates": [ 6.759562, 51.434999 ] } },
{ "type": "Feature", "properties": { "Book_ID": 9923157180101480, "Title": "Schoolkrantje.", "Extended Title ": null, "Place of Publication": "Gooik", "Name of Publisher": "Gesubsidieerde vrije basisschool Gooik-Oetingen", "Publication Frequency": "Semiannual", "Coordinates": "Gooik, Halle-Vilvoorde, Vlaams-Brabant, 1755, België / Belgique / Belgien", "Latitude": 50.795282, "Longitude": 4.1174097 }, "geometry": { "type": "Point", "coordinates": [ 4.1174097, 50.795282 ] } },
{ "type": "Feature", "properties": { "Book_ID": 9923166310101480, "Title": "'t Schoolgazetteke.", "Extended Title ": null, "Place of Publication": "Koekelberg", "Name of Publisher": "Instituut van de Ursulinen", "Publication Frequency": "Unknown", "Coordinates": "Koekelberg, Brussel-Hoofdstad - Bruxelles-Capitale, Région de Bruxelles-Capitale - Brussels Hoofdstedelijk Gewest, 1081, België / Belgique / Belgien", "Latitude": 50.8606042, "Longitude": 4.3315503 }, "geometry": { "type": "Point", "coordinates": [ 4.3315503, 50.8606042 ] } },
{ "type": "Feature", "properties": { "Book_ID": 9923180000101480, "Title": "CVP Meeuwen-Gruitrode.", "Extended Title ": null, "Place of Publication": "Meeuwen-Gruitrode", "Name of Publisher": "CVP", "Publication Frequency": "Unknown", "Coordinates": "Meeuwen Kruispunt Rietenstraat, Muisvenstraat, Muisven, Gruitrode, Oudsbergen, Maaseik, Limburg, Vlaanderen, 3670, België / Belgique / Belgien", "Latitude": 51.0947906, "Longitude": 5.5495218 }, "geometry": { "type": "Point", "coordinates": [ 5.5495218, 51.0947906 ] } },
{ "type": "Feature", "properties": { "Book_ID": 9923214230101480, "Title": "Christelijke volkspartij Hoeselt.", "Extended Title ": null, "Place of Publication": "Hoeselt", "Name of Publisher": "Christelijke volkspartij", "Publication Frequency": "Unknown", "Coordinates": "Hoeselt, Tongeren, Limburg, België / Belgique / Belgien", "Latitude": 50.8500788, "Longitude": 5.4865309 }, "geometry": { "type": "Point", "coordinates": [ 5.4865309, 50.8500788 ] } },
{ "type": "Feature", "properties": { "Book_ID": 9923230510101480, "Title": "'t Sleutelken.", "Extended Title ": null, "Place of Publication": "Wellen", "Name of Publisher": "Fanfare Sint-Cecilia", "Publication Frequency": "Quarterly", "Coordinates": "Wellen, Konz, Landkreis Trier-Saarburg, Rheinland-Pfalz, Deutschland", "Latitude": 49.6692928, "Longitude": 6.4334568 }, "geometry": { "type": "Point", "coordinates": [ 6.4334568, 49.6692928 ] } },
{ "type": "Feature", "properties": { "Book_ID": 9923231260101480, "Title": "Christelijke volkspartij - Alken.", "Extended Title ": null, "Place of Publication": "Alken", "Name of Publisher": "CVP", "Publication Frequency": "Unknown", "Coordinates": "Alken, Tongeren, Limburg, België / Belgique / Belgien", "Latitude": 50.8754731, "Longitude": 5.3079873 }, "geometry": { "type": "Point", "coordinates": [ 5.3079873, 50.8754731 ] } },
{ "type": "Feature", "properties": { "Book_ID": 9923260110101480, "Title": "VOSOG.", "Extended Title ": null, "Place of Publication": "Neerpelt", "Name of Publisher": "Vlaamse oud-scouts en oud-gidsen", "Publication Frequency": "Quarterly", "Coordinates": "Neerpelt, Pelt, Maaseik, Limburg, Vlaanderen, 3910, België / Belgique / Belgien", "Latitude": 51.22923665, "Longitude": 5.4427589681434849 }, "geometry": { "type": "Point", "coordinates": [ 5.442758968143485, 51.22923665 ] } },
{ "type": "Feature", "properties": { "Book_ID": 9923262010101480, "Title": "Onze school-Kruiskerke.", "Extended Title ": null, "Place of Publication": "Ruiselede", "Name of Publisher": "Vrije gemengde basisschool", "Publication Frequency": "Annual", "Coordinates": "Ruiselede, Tielt, West-Vlaanderen, Vlaanderen, 8755, België / Belgique / Belgien", "Latitude": 51.04123, "Longitude": 3.3972673 }, "geometry": { "type": "Point", "coordinates": [ 3.3972673, 51.04123 ] } },
{ "type": "Feature", "properties": { "Book_ID": 9923262320101480, "Title": "Kampboekje ...", "Extended Title ": null, "Place of Publication": "Zwevegem", "Name of Publisher": "KSA", "Publication Frequency": "Annual", "Coordinates": "Zwevegem, Kortrijk, West-Vlaanderen, 8550, België / Belgique / Belgien", "Latitude": 50.8128396, "Longitude": 3.3331679 }, "geometry": { "type": "Point", "coordinates": [ 3.3331679, 50.8128396 ] } },
{ "type": "Feature", "properties": { "Book_ID": 9923339270101480, "Title": "Japan. Forum", "Extended Title ": null, "Place of Publication": "Scheut", "Name of Publisher": "Missiehuis van Scheut", "Publication Frequency": "Irregular", "Coordinates": "Scheut, Anderlecht, Brussel-Hoofdstad - Bruxelles-Capitale, Région de Bruxelles-Capitale - Brussels Hoofdstedelijk Gewest, 1070, België / Belgique / Belgien", "Latitude": 50.8438911, "Longitude": 4.313077 }, "geometry": { "type": "Point", "coordinates": [ 4.313077, 50.8438911 ] } },
{ "type": "Feature", "properties": { "Book_ID": 9923486010101480, "Title": "Echo-informatief.", "Extended Title ": null, "Place of Publication": "Ronse", "Name of Publisher": "Sint-Antoniuscollege. Oud-leerlingenbond", "Publication Frequency": "Unknown", "Coordinates": "Ronse, Oudenaarde, Oost-Vlaanderen, 9600, België / Belgique / Belgien", "Latitude": 50.7526199, "Longitude": 3.601447689906585 }, "geometry": { "type": "Point", "coordinates": [ 3.601447689906585, 50.7526199 ] } },
{ "type": "Feature", "properties": { "Book_ID": 9923492480101480, "Title": "Aube nouvelle", "Extended Title ": ": Bulletin de reflexion du seminaire theologique St. Cyprien.", "Place of Publication": "Yaounde", "Name of Publisher": "Seminaire théologique St.-Cyprien", "Publication Frequency": "Quarterly", "Coordinates": "Communauté urbaine de Yaoundé, Mfoundi, Centre, Cameroun", "Latitude": 3.8689867, "Longitude": 11.5213344 }, "geometry": { "type": "Point", "coordinates": [ 11.5213344, 3.8689867 ] } },
{ "type": "Feature", "properties": { "Book_ID": 9923522200101480, "Title": "(Unlisted)", "Extended Title ": null, "Place of Publication": "Bruxelles", "Name of Publisher": "Association des femmes universitaires catholiques", "Publication Frequency": "Quarterly", "Coordinates": "Bruxelles - Brussel, Ville de Bruxelles - Stad Brussel, Brussel-Hoofdstad - Bruxelles-Capitale, Région de Bruxelles-Capitale - Brussels Hoofdstedelijk Gewest, België / Belgique / Belgien", "Latitude": 50.8465573, "Longitude": 4.351697 }, "geometry": { "type": "Point", "coordinates": [ 4.351697, 50.8465573 ] } },
{ "type": "Feature", "properties": { "Book_ID": 9923651390101480, "Title": "Opbouw van het volk Gods", "Extended Title ": null, "Place of Publication": "Nijmegen", "Name of Publisher": "Congregatie van het Heilig Sacrament", "Publication Frequency": "Bimonthly", "Coordinates": "Nijmegen, Gelderland, Nederland", "Latitude": 51.84257485000001, "Longitude": 5.8389606287482287 }, "geometry": { "type": "Point", "coordinates": [ 5.838960628748229, 51.84257485 ] } },
{ "type": "Feature", "properties": { "Book_ID": 9923678240101480, "Title": "Davila.", "Extended Title ": null, "Place of Publication": "Lanaken", "Name of Publisher": "Davidsfonds", "Publication Frequency": "Other", "Coordinates": "Lanaken, Tongeren, Limburg, België / Belgique / Belgien", "Latitude": 50.8892784, "Longitude": 5.6513208 }, "geometry": { "type": "Point", "coordinates": [ 5.6513208, 50.8892784 ] } },
{ "type": "Feature", "properties": { "Book_ID": 9923680160101480, "Title": "Davidsfonds Hasselt. Nieuwsbrief", "Extended Title ": null, "Place of Publication": "Hasselt", "Name of Publisher": "Davidsfonds", "Publication Frequency": "Quarterly", "Coordinates": "Hasselt, Limburg, België / Belgique / Belgien", "Latitude": 50.9303735, "Longitude": 5.3378043 }, "geometry": { "type": "Point", "coordinates": [ 5.3378043, 50.9303735 ] } },
{ "type": "Feature", "properties": { "Book_ID": 9923680580101480, "Title": "Info Davidsfonds Mere.", "Extended Title ": null, "Place of Publication": "Mere", "Name of Publisher": "Davidsfonds", "Publication Frequency": "Quarterly", "Coordinates": "Mere, Wiltshire, England, United Kingdom", "Latitude": 51.0894379, "Longitude": -2.2684427 }, "geometry": { "type": "Point", "coordinates": [ -2.2684427, 51.0894379 ] } },
{ "type": "Feature", "properties": { "Book_ID": 9923682570101480, "Title": "Info", "Extended Title ": null, "Place of Publication": "Mater-Horebeke", "Name of Publisher": "Davidsfonds", "Publication Frequency": "Unknown", "Coordinates": "Horebekeweg, Mater, Oudenaarde, Oost-Vlaanderen, 9700, België / Belgique / Belgien", "Latitude": 50.8394501, "Longitude": 3.6782946 }, "geometry": { "type": "Point", "coordinates": [ 3.6782946, 50.8394501 ] } },
{ "type": "Feature", "properties": { "Book_ID": 9923683480101480, "Title": "Davidsfonds St-Lambrechts-Herk.", "Extended Title ": null, "Place of Publication": "Sint-Lambrechts-Herk", "Name of Publisher": "Davidsfonds", "Publication Frequency": "Quarterly", "Coordinates": "Sint-Lambrechts-Herk, Hasselt, Limburg, België / Belgique / Belgien", "Latitude": 50.9019388, "Longitude": 5.3058995 }, "geometry": { "type": "Point", "coordinates": [ 5.3058995, 50.9019388 ] } },
{ "type": "Feature", "properties": { "Book_ID": 9923683540101480, "Title": "Davidsfonds-krantje.", "Extended Title ": null, "Place of Publication": "Komen", "Name of Publisher": "Davidsfonds", "Publication Frequency": "Bimonthly", "Coordinates": "Comines, Lille, Nord, Hauts-de-France, France métropolitaine, 59560, France", "Latitude": 50.7653265, "Longitude": 3.0066319 }, "geometry": { "type": "Point", "coordinates": [ 3.0066319, 50.7653265 ] } },
{ "type": "Feature", "properties": { "Book_ID": 9923692330101480, "Title": "Voeling", "Extended Title ": ": ledenblad DF-Kruishoutem.", "Place of Publication": "Kruishoutem", "Name of Publisher": "Davidsfonds", "Publication Frequency": "Unknown", "Coordinates": "Kruishoutem, Kruisem, Oudenaarde, Oost-Vlaanderen, 9770, België / Belgique / Belgien", "Latitude": 50.92045875, "Longitude": 3.5212265368550506 }, "geometry": { "type": "Point", "coordinates": [ 3.521226536855051, 50.92045875 ] } },
{ "type": "Feature", "properties": { "Book_ID": 9923692780101480, "Title": "Davidsfonds-nieuws", "Extended Title ": null, "Place of Publication": "Lembeek", "Name of Publisher": "Davidsfonds", "Publication Frequency": "Unknown", "Coordinates": "Lembeek, Halle, Halle-Vilvoorde, Vlaams-Brabant, 1502, België / Belgique / Belgien", "Latitude": 50.7135392, "Longitude": 4.2229681 }, "geometry": { "type": "Point", "coordinates": [ 4.2229681, 50.7135392 ] } },
{ "type": "Feature", "properties": { "Book_ID": 9923692860101480, "Title": "Davidsfonds informatief.", "Extended Title ": null, "Place of Publication": "Leffinge-Slijpe", "Name of Publisher": "Davidsfonds", "Publication Frequency": "Unknown", "Coordinates": "Slijpesteenweg, Leffinge, Middelkerke, Oostende, West-Vlaanderen, Vlaanderen, 8432, België / Belgique / Belgien", "Latitude": 51.162019, "Longitude": 2.8628589 }, "geometry": { "type": "Point", "coordinates": [ 2.8628589, 51.162019 ] } },
{ "type": "Feature", "properties": { "Book_ID": 9923692980101480, "Title": "Davidsfonds info-Lede.", "Extended Title ": null, "Place of Publication": "Lede", "Name of Publisher": "Davidsfonds", "Publication Frequency": "Quarterly", "Coordinates": "Lede, Aalst, Oost-Vlaanderen, Vlaanderen, 9340, België / Belgique / Belgien", "Latitude": 50.9662645, "Longitude": 3.9775505 }, "geometry": { "type": "Point", "coordinates": [ 3.9775505, 50.9662645 ] } },
{ "type": "Feature", "properties": { "Book_ID": 9910315910101480, "Title": "EVP-bulletin.", "Extended Title ": null, "Place of Publication": "Bruxelles", "Name of Publisher": "EVP", "Publication Frequency": "Quarterly", "Coordinates": "Bruxelles - Brussel, Ville de Bruxelles - Stad Brussel, Brussel-Hoofdstad - Bruxelles-Capitale, Région de Bruxelles-Capitale - Brussels Hoofdstedelijk Gewest, België / Belgique / Belgien", "Latitude": 50.8465573, "Longitude": 4.351697 }, "geometry": { "type": "Point", "coordinates": [ 4.351697, 50.8465573 ] } },
{ "type": "Feature", "properties": { "Book_ID": 9910316030101480, "Title": "Lemmenskrant", "Extended Title ": "mededelingenblad van de oud-studentenbond.", "Place of Publication": "Leuven", "Name of Publisher": "Lemmensinstituut", "Publication Frequency": "Quarterly", "Coordinates": "Leuven, Vlaams-Brabant, Vlaanderen, België / Belgique / Belgien", "Latitude": 50.879202, "Longitude": 4.7011675 }, "geometry": { "type": "Point", "coordinates": [ 4.7011675, 50.879202 ] } },
{ "type": "Feature", "properties": { "Book_ID": 9910317000101480, "Title": "Info truck.", "Extended Title ": null, "Place of Publication": "Antwerpen", "Name of Publisher": "CVD", "Publication Frequency": "Quarterly", "Coordinates": "Antwerpen, Vlaanderen, België / Belgique / Belgien", "Latitude": 51.2211097, "Longitude": 4.3997081 }, "geometry": { "type": "Point", "coordinates": [ 4.3997081, 51.2211097 ] } },
{ "type": "Feature", "properties": { "Book_ID": 9910335240101480, "Title": "Wijngaard-berichten.", "Extended Title ": null, "Place of Publication": "Brugge", "Name of Publisher": "Vrienden van de Wijngaard - Oud-Begijnhof", "Publication Frequency": "Quarterly", "Coordinates": "Brugge, West-Vlaanderen, België / Belgique / Belgien", "Latitude": 51.2085526, "Longitude": 3.226772 }, "geometry": { "type": "Point", "coordinates": [ 3.226772, 51.2085526 ] } },
{ "type": "Feature", "properties": { "Book_ID": 9910370370101480, "Title": "(Unlisted)", "Extended Title ": "L'Afrique et ses formes de vie spirituelle.", "Place of Publication": "Kinshasa", "Name of Publisher": "Faculté de théologie catholique", "Publication Frequency": null, "Coordinates": "Kinshasa, Aketi, Kinshasa, République démocratique du Congo", "Latitude": -4.3217055, "Longitude": 15.3125974 }, "geometry": { "type": "Point", "coordinates": [ 15.3125974, -4.3217055 ] } },
{ "type": "Feature", "properties": { "Book_ID": 9910387620101480, "Title": "Mali-krant.", "Extended Title ": null, "Place of Publication": "Opwijk", "Name of Publisher": "Zusters van de Heilige Vincentius", "Publication Frequency": "Quarterly", "Coordinates": "Opwijk, Halle-Vilvoorde, Vlaams-Brabant, 1745, België / Belgique / Belgien", "Latitude": 50.9690529, "Longitude": 4.1896665 }, "geometry": { "type": "Point", "coordinates": [ 4.1896665, 50.9690529 ] } },
{ "type": "Feature", "properties": { "Book_ID": 9910556750101480, "Title": "Antenne 2", "Extended Title ": ": revue trimestrielle de coopération au développement", "Place of Publication": "Bruxelles", "Name of Publisher": "Volens", "Publication Frequency": "Quarterly", "Coordinates": "Bruxelles - Brussel, Ville de Bruxelles - Stad Brussel, Brussel-Hoofdstad - Bruxelles-Capitale, Région de Bruxelles-Capitale - Brussels Hoofdstedelijk Gewest, België / Belgique / Belgien", "Latitude": 50.8465573, "Longitude": 4.351697 }, "geometry": { "type": "Point", "coordinates": [ 4.351697, 50.8465573 ] } },
{ "type": "Feature", "properties": { "Book_ID": 9910562150101480, "Title": "Treftijd", "Extended Title ": ": onderwerpen uit tijdschriftartikelen", "Place of Publication": "Antwerpen", "Name of Publisher": "KCLB", "Publication Frequency": "Bimonthly", "Coordinates": "Antwerpen, Vlaanderen, België / Belgique / Belgien", "Latitude": 51.2211097, "Longitude": 4.3997081 }, "geometry": { "type": "Point", "coordinates": [ 4.3997081, 51.2211097 ] } },
{ "type": "Feature", "properties": { "Book_ID": 9910574650101480, "Title": "Credo - ik geloof.", "Extended Title ": null, "Place of Publication": "De Panne", "Name of Publisher": "Thomas More-genootschap", "Publication Frequency": "Quarterly", "Coordinates": "De Panne, Veurne, West-Vlaanderen, Vlaanderen, 8660, België / Belgique / Belgien", "Latitude": 51.0988314, "Longitude": 2.5924087 }, "geometry": { "type": "Point", "coordinates": [ 2.5924087, 51.0988314 ] } },
{ "type": "Feature", "properties": { "Book_ID": 9910705750101480, "Title": "Haverklap.", "Extended Title ": null, "Place of Publication": "Antwerpen", "Name of Publisher": "Chirojeugd", "Publication Frequency": "Monthly", "Coordinates": "Antwerpen, Vlaanderen, België / Belgique / Belgien", "Latitude": 51.2211097, "Longitude": 4.3997081 }, "geometry": { "type": "Point", "coordinates": [ 4.3997081, 51.2211097 ] } },
{ "type": "Feature", "properties": { "Book_ID": 9910838080101480, "Title": "Wissel-stroom", "Extended Title ": ": driemaandelijks kontaktblad van COOPIBO", "Place of Publication": "Heverlee", "Name of Publisher": "COOPIBO", "Publication Frequency": "Quarterly", "Coordinates": "Heverlee, Leuven, Vlaams-Brabant, Vlaanderen, 3001, België / Belgique / Belgien", "Latitude": 50.8645908, "Longitude": 4.6937736 }, "geometry": { "type": "Point", "coordinates": [ 4.6937736, 50.8645908 ] } },
{ "type": "Feature", "properties": { "Book_ID": 9911011680101480, "Title": "Cardijn leeft.", "Extended Title ": null, "Place of Publication": "Sint-Niklaas", "Name of Publisher": "Vriendenkring Cardijn leeft", "Publication Frequency": "Semiannual", "Coordinates": "Sint-Niklaas, Oost-Vlaanderen, Vlaanderen, België / Belgique / Belgien", "Latitude": 51.1646685, "Longitude": 4.1395124 }, "geometry": { "type": "Point", "coordinates": [ 4.1395124, 51.1646685 ] } },
{ "type": "Feature", "properties": { "Book_ID": 9911089300101480, "Title": "Cedoc-film. Informatie", "Extended Title ": null, "Place of Publication": "Bruxelles", "Name of Publisher": "Cedoc-film", "Publication Frequency": "Unknown", "Coordinates": "Bruxelles - Brussel, Ville de Bruxelles - Stad Brussel, Brussel-Hoofdstad - Bruxelles-Capitale, Région de Bruxelles-Capitale - Brussels Hoofdstedelijk Gewest, België / Belgique / Belgien", "Latitude": 50.8465573, "Longitude": 4.351697 }, "geometry": { "type": "Point", "coordinates": [ 4.351697, 50.8465573 ] } },
{ "type": "Feature", "properties": { "Book_ID": 9911236180101480, "Title": "'t middenstanderke.", "Extended Title ": null, "Place of Publication": "Leuven", "Name of Publisher": "NCMV", "Publication Frequency": "Quarterly", "Coordinates": "Leuven, Vlaams-Brabant, Vlaanderen, België / Belgique / Belgien", "Latitude": 50.879202, "Longitude": 4.7011675 }, "geometry": { "type": "Point", "coordinates": [ 4.7011675, 50.879202 ] } },
{ "type": "Feature", "properties": { "Book_ID": 9911268530101480, "Title": "Feiten", "Extended Title ": ": bestuursblad Sint-Michielsbond.", "Place of Publication": "Bruxelles", "Name of Publisher": "Landsbond der christelijke mutualiteiten. Sint-Michielsbond", "Publication Frequency": "Quarterly", "Coordinates": "Bruxelles - Brussel, Ville de Bruxelles - Stad Brussel, Brussel-Hoofdstad - Bruxelles-Capitale, Région de Bruxelles-Capitale - Brussels Hoofdstedelijk Gewest, België / Belgique / Belgien", "Latitude": 50.8465573, "Longitude": 4.351697 }, "geometry": { "type": "Point", "coordinates": [ 4.351697, 50.8465573 ] } },
{ "type": "Feature", "properties": { "Book_ID": 9911276380101480, "Title": "AVIMO info", "Extended Title ": null, "Place of Publication": "Leuven", "Name of Publisher": "AVIMO", "Publication Frequency": "Quarterly", "Coordinates": "Leuven, Vlaams-Brabant, Vlaanderen, België / Belgique / Belgien", "Latitude": 50.879202, "Longitude": 4.7011675 }, "geometry": { "type": "Point", "coordinates": [ 4.7011675, 50.879202 ] } },
{ "type": "Feature", "properties": { "Book_ID": 9911327240101480, "Title": "Belhamel", "Extended Title ": "schrift voor basis en bijbel, maatschappij- en kerkkritische kristenen.", "Place of Publication": "Deurne", "Name of Publisher": "Basis en Bijbel", "Publication Frequency": "Quarterly", "Coordinates": "Deurne, Noord-Brabant, Nederland", "Latitude": 51.4281834, "Longitude": 5.828106871124028 }, "geometry": { "type": "Point", "coordinates": [ 5.828106871124028, 51.4281834 ] } },
{ "type": "Feature", "properties": { "Book_ID": 9911332540101480, "Title": "Beweging voor een strijdbare en politiek zelfstandige Christelijke Arbeidersbeweging.", "Extended Title ": null, "Place of Publication": "Zonhoven", "Name of Publisher": "Werkgroep Kristelijke Arbeiderspartij", "Publication Frequency": "Quarterly", "Coordinates": "Zonhoven, Hasselt, Limburg, 3520, België / Belgique / Belgien", "Latitude": 50.9909835, "Longitude": 5.3677683 }, "geometry": { "type": "Point", "coordinates": [ 5.3677683, 50.9909835 ] } },
{ "type": "Feature", "properties": { "Book_ID": 9911339990101480, "Title": "Biotechnicum Bocholt.", "Extended Title ": null, "Place of Publication": "Bocholt", "Name of Publisher": "Biotechnicum Bocholt", "Publication Frequency": "Quarterly", "Coordinates": "Bocholt, Kreis Borken, Nordrhein-Westfalen, Deutschland", "Latitude": 51.8382715, "Longitude": 6.6148669 }, "geometry": { "type": "Point", "coordinates": [ 6.6148669, 51.8382715 ] } },
{ "type": "Feature", "properties": { "Book_ID": 9911426700101480, "Title": "Deus Caritas.", "Extended Title ": null, "Place of Publication": "Aalst", "Name of Publisher": "Deus Caritas", "Publication Frequency": "Monthly", "Coordinates": "Aalst, Oost-Vlaanderen, Vlaanderen, België / Belgique / Belgien", "Latitude": 50.9383226, "Longitude": 4.0392147 }, "geometry": { "type": "Point", "coordinates": [ 4.0392147, 50.9383226 ] } },
{ "type": "Feature", "properties": { "Book_ID": 9911443090101480, "Title": "CVD", "Extended Title ": ": driemaandelijks tijdschrift van de CVD, christelijke vervoerarbeiders en diamantbewerkers.", "Place of Publication": "Antwerpen", "Name of Publisher": "Christelijke vervoerarbeiders en diamantbewerkers", "Publication Frequency": "Quarterly", "Coordinates": "Antwerpen, Vlaanderen, België / Belgique / Belgien", "Latitude": 51.2211097, "Longitude": 4.3997081 }, "geometry": { "type": "Point", "coordinates": [ 4.3997081, 51.2211097 ] } },
{ "type": "Feature", "properties": { "Book_ID": 9911443410101480, "Title": "De chirokrant.", "Extended Title ": null, "Place of Publication": "Antwerpen", "Name of Publisher": "Chirojeugd Vlaanderen", "Publication Frequency": "Quarterly", "Coordinates": "Antwerpen, Vlaanderen, België / Belgique / Belgien", "Latitude": 51.2211097, "Longitude": 4.3997081 }, "geometry": { "type": "Point", "coordinates": [ 4.3997081, 51.2211097 ] } },
{ "type": "Feature", "properties": { "Book_ID": 9911447530101480, "Title": "Internationaal hulpbetoon van Caritas Catholica betreffende de migraties. Documentatienota's.", "Extended Title ": null, "Place of Publication": "Bruxelles", "Name of Publisher": "Internationaal hulpbetoon van Caritas Catholica betreffende migraties", "Publication Frequency": "Bimonthly", "Coordinates": "Bruxelles - Brussel, Ville de Bruxelles - Stad Brussel, Brussel-Hoofdstad - Bruxelles-Capitale, Région de Bruxelles-Capitale - Brussels Hoofdstedelijk Gewest, België / Belgique / Belgien", "Latitude": 50.8465573, "Longitude": 4.351697 }, "geometry": { "type": "Point", "coordinates": [ 4.351697, 50.8465573 ] } },
{ "type": "Feature", "properties": { "Book_ID": 9911450420101480, "Title": "Gerust geweten", "Extended Title ": "tijdschrift voor homoseksualiteit en geloof.", "Place of Publication": "Antwerpen", "Name of Publisher": "Federatie werkgroepen homofilie", "Publication Frequency": "Quarterly", "Coordinates": "Antwerpen, Vlaanderen, België / Belgique / Belgien", "Latitude": 51.2211097, "Longitude": 4.3997081 }, "geometry": { "type": "Point", "coordinates": [ 4.3997081, 51.2211097 ] } },
{ "type": "Feature", "properties": { "Book_ID": 9911484990101480, "Title": "Fedekaminfo.", "Extended Title ": null, "Place of Publication": "Westerlo", "Name of Publisher": "Fedekam-Antwerpen", "Publication Frequency": "Bimonthly", "Coordinates": "Westerlo, Turnhout, Antwerpen, Vlaanderen, 2260, België / Belgique / Belgien", "Latitude": 51.086694, "Longitude": 4.9168675 }, "geometry": { "type": "Point", "coordinates": [ 4.9168675, 51.086694 ] } },
{ "type": "Feature", "properties": { "Book_ID": 9911504220101480, "Title": "Intersectorale beheersinformatie.", "Extended Title ": null, "Place of Publication": "Bruxelles", "Name of Publisher": "Caritas catholica Vlaanderen. Instellingensector", "Publication Frequency": "Other", "Coordinates": "Bruxelles - Brussel, Ville de Bruxelles - Stad Brussel, Brussel-Hoofdstad - Bruxelles-Capitale, Région de Bruxelles-Capitale - Brussels Hoofdstedelijk Gewest, België / Belgique / Belgien", "Latitude": 50.8465573, "Longitude": 4.351697 }, "geometry": { "type": "Point", "coordinates": [ 4.351697, 50.8465573 ] } },
{ "type": "Feature", "properties": { "Book_ID": 9911538890101480, "Title": "Zeg kaders", "Extended Title ": ": kaderblad van de Vlaamse christen-democraten.", "Place of Publication": "Bruxelles", "Name of Publisher": "CVP", "Publication Frequency": "Monthly", "Coordinates": "Bruxelles - Brussel, Ville de Bruxelles - Stad Brussel, Brussel-Hoofdstad - Bruxelles-Capitale, Région de Bruxelles-Capitale - Brussels Hoofdstedelijk Gewest, België / Belgique / Belgien", "Latitude": 50.8465573, "Longitude": 4.351697 }, "geometry": { "type": "Point", "coordinates": [ 4.351697, 50.8465573 ] } },
{ "type": "Feature", "properties": { "Book_ID": 9911556330101480, "Title": "Kontakt.", "Extended Title ": null, "Place of Publication": "Kerniel", "Name of Publisher": "Vrienden van Colen", "Publication Frequency": "Monthly", "Coordinates": "Kerniel, Borgloon, Tongeren, Limburg, België / Belgique / Belgien", "Latitude": 50.816919, "Longitude": 5.3633525 }, "geometry": { "type": "Point", "coordinates": [ 5.3633525, 50.816919 ] } },
{ "type": "Feature", "properties": { "Book_ID": 9911570940101480, "Title": "Samen Tegen Armoede. Welzijnszorg Info", "Extended Title ": null, "Place of Publication": "Bruxelles", "Name of Publisher": "Welzijnszorg", "Publication Frequency": "Quarterly", "Coordinates": "Bruxelles - Brussel, Ville de Bruxelles - Stad Brussel, Brussel-Hoofdstad - Bruxelles-Capitale, Région de Bruxelles-Capitale - Brussels Hoofdstedelijk Gewest, België / Belgique / Belgien", "Latitude": 50.8465573, "Longitude": 4.351697 }, "geometry": { "type": "Point", "coordinates": [ 4.351697, 50.8465573 ] } },
{ "type": "Feature", "properties": { "Book_ID": 9911574690101480, "Title": "Klimop.", "Extended Title ": null, "Place of Publication": "Gent", "Name of Publisher": "Gemeenschap Maria-Kefas. Jongerenwerking", "Publication Frequency": "Bimonthly", "Coordinates": "Gent, Oost-Vlaanderen, Vlaanderen, België / Belgique / Belgien", "Latitude": 51.0538286, "Longitude": 3.7250121 }, "geometry": { "type": "Point", "coordinates": [ 3.7250121, 51.0538286 ] } },
{ "type": "Feature", "properties": { "Book_ID": 9911585880101480, "Title": "Kort manifest", "Extended Title ": null, "Place of Publication": "Kontich", "Name of Publisher": "Vormingsinstituut Wies Moens", "Publication Frequency": "Other", "Coordinates": "Kontich, Antwerpen, Vlaanderen, 2550, België / Belgique / Belgien", "Latitude": 51.1353297, "Longitude": 4.4454784 }, "geometry": { "type": "Point", "coordinates": [ 4.4454784, 51.1353297 ] } },
{ "type": "Feature", "properties": { "Book_ID": 9911586270101480, "Title": "Leeftocht.", "Extended Title ": null, "Place of Publication": "Bruxelles", "Name of Publisher": "s.n.", "Publication Frequency": "Bimonthly", "Coordinates": "Bruxelles - Brussel, Ville de Bruxelles - Stad Brussel, Brussel-Hoofdstad - Bruxelles-Capitale, Région de Bruxelles-Capitale - Brussels Hoofdstedelijk Gewest, België / Belgique / Belgien", "Latitude": 50.8465573, "Longitude": 4.351697 }, "geometry": { "type": "Point", "coordinates": [ 4.351697, 50.8465573 ] } },
{ "type": "Feature", "properties": { "Book_ID": 9911591120101480, "Title": "Meubihome.", "Extended Title ": null, "Place of Publication": "Bruxelles", "Name of Publisher": "NAVEM en NAMEV", "Publication Frequency": "Bimonthly", "Coordinates": "Bruxelles - Brussel, Ville de Bruxelles - Stad Brussel, Brussel-Hoofdstad - Bruxelles-Capitale, Région de Bruxelles-Capitale - Brussels Hoofdstedelijk Gewest, België / Belgique / Belgien", "Latitude": 50.8465573, "Longitude": 4.351697 }, "geometry": { "type": "Point", "coordinates": [ 4.351697, 50.8465573 ] } },
{ "type": "Feature", "properties": { "Book_ID": 9911591440101480, "Title": "Milacecho.", "Extended Title ": null, "Place of Publication": "Zottegem", "Name of Publisher": "MILAC", "Publication Frequency": "Bimonthly", "Coordinates": "Zottegem, Aalst, Oost-Vlaanderen, 9620, België / Belgique / Belgien", "Latitude": 50.86423965, "Longitude": 3.8102499040397824 }, "geometry": { "type": "Point", "coordinates": [ 3.810249904039782, 50.86423965 ] } },
{ "type": "Feature", "properties": { "Book_ID": 9911593010101480, "Title": "Minga.", "Extended Title ": null, "Place of Publication": "Vorselaar", "Name of Publisher": "Minga", "Publication Frequency": "Quarterly", "Coordinates": "Vorselaar, Turnhout, Antwerpen, Vlaanderen, 2290, België / Belgique / Belgien", "Latitude": 51.2023448, "Longitude": 4.769482 }, "geometry": { "type": "Point", "coordinates": [ 4.769482, 51.2023448 ] } },
{ "type": "Feature", "properties": { "Book_ID": 9911593680101480, "Title": "Nieuws uit Arara.", "Extended Title ": null, "Place of Publication": "Antwerpen", "Name of Publisher": "Arara", "Publication Frequency": "Quarterly", "Coordinates": "Antwerpen, Vlaanderen, België / Belgique / Belgien", "Latitude": 51.2211097, "Longitude": 4.3997081 }, "geometry": { "type": "Point", "coordinates": [ 4.3997081, 51.2211097 ] } },
{ "type": "Feature", "properties": { "Book_ID": 9911599900101480, "Title": "Om en rondom", "Extended Title ": "tijdschrift van het bisdom bij de krijgsmacht en de katholieke aalmoezeniersdienst", "Place of Publication": "Bruxelles", "Name of Publisher": "SDAC.", "Publication Frequency": "Quarterly", "Coordinates": "Bruxelles - Brussel, Ville de Bruxelles - Stad Brussel, Brussel-Hoofdstad - Bruxelles-Capitale, Région de Bruxelles-Capitale - Brussels Hoofdstedelijk Gewest, België / Belgique / Belgien", "Latitude": 50.8465573, "Longitude": 4.351697 }, "geometry": { "type": "Point", "coordinates": [ 4.351697, 50.8465573 ] } },
{ "type": "Feature", "properties": { "Book_ID": 9911805270101480, "Title": "De pelgrim", "Extended Title ": "contactblad van het Vlaams genootschap van Santiago de Compostela.", "Place of Publication": "Zevenkerken-bij-Brugge", "Name of Publisher": "Vlaams genootschap van Santiago de Compostela", "Publication Frequency": "Quarterly", "Coordinates": null, "Latitude": null, "Longitude": null }, "geometry": null },
{ "type": "Feature", "properties": { "Book_ID": 9911813080101480, "Title": "Polsslag.", "Extended Title ": null, "Place of Publication": "Hasselt", "Name of Publisher": "Verbond der kristelijke mutualiteiten van Limburg. Jeugddienst", "Publication Frequency": "Quarterly", "Coordinates": "Hasselt, Limburg, België / Belgique / Belgien", "Latitude": 50.9303735, "Longitude": 5.3378043 }, "geometry": { "type": "Point", "coordinates": [ 5.3378043, 50.9303735 ] } },
{ "type": "Feature", "properties": { "Book_ID": 9911860090101480, "Title": "Roosendael sinds eeuwen.", "Extended Title ": null, "Place of Publication": "Sint-Katelijne-Waver", "Name of Publisher": "Roosendael", "Publication Frequency": "Quarterly", "Coordinates": "Sint-Katelijne-Waver, Mechelen, Antwerpen, Vlaanderen, 2860, België / Belgique / Belgien", "Latitude": 51.06232435, "Longitude": 4.5114278140146888 }, "geometry": { "type": "Point", "coordinates": [ 4.511427814014689, 51.06232435 ] } },
{ "type": "Feature", "properties": { "Book_ID": 9911879710101480, "Title": "Sportanieuws.", "Extended Title ": null, "Place of Publication": "Berchem", "Name of Publisher": "Sporta-Sporval", "Publication Frequency": "Quarterly", "Coordinates": "Berchem-Sainte-Agathe - Sint-Agatha-Berchem, Brussel-Hoofdstad - Bruxelles-Capitale, Région de Bruxelles-Capitale - Brussels Hoofdstedelijk Gewest, 1082, België / Belgique / Belgien", "Latitude": 50.8649231, "Longitude": 4.2946734 }, "geometry": { "type": "Point", "coordinates": [ 4.2946734, 50.8649231 ] } },
{ "type": "Feature", "properties": { "Book_ID": 9911890940101480, "Title": "Treffer.", "Extended Title ": null, "Place of Publication": "Antwerpen", "Name of Publisher": "KAV", "Publication Frequency": "Monthly", "Coordinates": "Antwerpen, Vlaanderen, België / Belgique / Belgien", "Latitude": 51.2211097, "Longitude": 4.3997081 }, "geometry": { "type": "Point", "coordinates": [ 4.3997081, 51.2211097 ] } },
{ "type": "Feature", "properties": { "Book_ID": 9911976490101480, "Title": "Voor een levende liturgie.", "Extended Title ": null, "Place of Publication": "Hasselt", "Name of Publisher": "Brauns", "Publication Frequency": "Bimonthly", "Coordinates": "Hasselt, Limburg, België / Belgique / Belgien", "Latitude": 50.9303735, "Longitude": 5.3378043 }, "geometry": { "type": "Point", "coordinates": [ 5.3378043, 50.9303735 ] } },
{ "type": "Feature", "properties": { "Book_ID": 9911976780101480, "Title": "Vrienden van het volkstehuis.", "Extended Title ": null, "Place of Publication": "Hasselt", "Name of Publisher": "Volkstehuis Maagd der armen", "Publication Frequency": "Quarterly", "Coordinates": "Hasselt, Limburg, België / Belgique / Belgien", "Latitude": 50.9303735, "Longitude": 5.3378043 }, "geometry": { "type": "Point", "coordinates": [ 5.3378043, 50.9303735 ] } },
{ "type": "Feature", "properties": { "Book_ID": 9912053160101480, "Title": "M-info...", "Extended Title ": null, "Place of Publication": "Kortrijk", "Name of Publisher": "VKZ", "Publication Frequency": "Quarterly", "Coordinates": "Kortrijk, West-Vlaanderen, België / Belgique / Belgien", "Latitude": 50.8276429, "Longitude": 3.2659884 }, "geometry": { "type": "Point", "coordinates": [ 3.2659884, 50.8276429 ] } },
{ "type": "Feature", "properties": { "Book_ID": 9912061740101480, "Title": "Annuntio.", "Extended Title ": null, "Place of Publication": "Genk", "Name of Publisher": "Annuntio-gemeenschap", "Publication Frequency": "Quarterly", "Coordinates": "Genk, Hasselt, Limburg, 3600, België / Belgique / Belgien", "Latitude": 50.9654864, "Longitude": 5.5001456 }, "geometry": { "type": "Point", "coordinates": [ 5.5001456, 50.9654864 ] } },
{ "type": "Feature", "properties": { "Book_ID": 9912061850101480, "Title": "Antoniana.", "Extended Title ": null, "Place of Publication": "Zonnebeke", "Name of Publisher": "Stichting vrienden van Sint-Antonius-abt", "Publication Frequency": "Quarterly", "Coordinates": "Zonnebeke, Ieper, West-Vlaanderen, 8980, België / Belgique / Belgien", "Latitude": 50.8731885, "Longitude": 2.9874678 }, "geometry": { "type": "Point", "coordinates": [ 2.9874678, 50.8731885 ] } },
{ "type": "Feature", "properties": { "Book_ID": 9912062290101480, "Title": "(Unlisted)", "Extended Title ": "L'avenir D.C. / magazine des jeunes démocrates chrétiens européens", "Place of Publication": "Bruxelles", "Name of Publisher": "JDCE", "Publication Frequency": "Quarterly", "Coordinates": "Bruxelles - Brussel, Ville de Bruxelles - Stad Brussel, Brussel-Hoofdstad - Bruxelles-Capitale, Région de Bruxelles-Capitale - Brussels Hoofdstedelijk Gewest, België / Belgique / Belgien", "Latitude": 50.8465573, "Longitude": 4.351697 }, "geometry": { "type": "Point", "coordinates": [ 4.351697, 50.8465573 ] } },